id,name,type,typeCode,bizType,address,gcj02_lng,gcj02_lat,wgs84_lng,wgs84_lat,tel,provinceName,cityName,adName
BV11605044,花城街(地铁站),交通设施服务;地铁站;地铁站,150500,[],(在建)18号线北延段,113.234955,23.425568,113.229608,23.42816021,[],广东省,广州市,花都区
BV10571472,花都广场(地铁站),交通设施服务;地铁站;地铁站,150500,[],9号线,113.222628,23.401307,113.2172738,23.40389316,[],广东省,广州市,花都区
BV10571473,马鞍山公园(地铁站),交通设施服务;地铁站;地铁站,150500,[],(在建)18号线北延段;9号线,113.237792,23.399457,113.232448,23.40205441,[],广东省,广州市,花都区
BV10024349,机场南(1号航站楼)(地铁站),交通设施服务;地铁站;地铁站,150500,[],(在建)22号线北延段;3号线北延段,113.303097,23.38669,113.2976991,23.38924307,[],广东省,广州市,花都区
BV10571469,莲塘(地铁站),交通设施服务;地铁站;地铁站,150500,[],9号线,113.245149,23.389101,113.2398075,23.39170245,[],广东省,广州市,花都区
BV10571474,花果山公园(地铁站),交通设施服务;地铁站;地铁站,150500,[],9号线,113.218389,23.387119,113.2130315,23.38970308,[],广东省,广州市,花都区
BV10571480,花城路(地铁站),交通设施服务;地铁站;地铁站,150500,[],9号线,113.21274,23.379622,113.2073764,23.38220064,[],广东省,广州市,花都区
BV10571470,清布(地铁站),交通设施服务;地铁站;地铁站,150500,[],9号线,113.250989,23.378122,113.2456481,23.3807258,[],广东省,广州市,花都区
BV10571477,广州北站(地铁站),交通设施服务;地铁站;地铁站,150500,[],(规划)24号线;9号线,113.201568,23.376419,113.1961889,23.37898228,[],广东省,广州市,花都区
BV10571478,花都汽车城(地铁站),交通设施服务;地铁站;地铁站,150500,[],9号线,113.180367,23.379671,113.1749511,23.38219679,[],广东省,广州市,花都区
BV10710261,清塘(地铁站),交通设施服务;地铁站;地铁站,150500,[],9号线,113.262858,23.372206,113.257513,23.37480772,[],广东省,广州市,花都区
BV10571476,飞鹅岭(地铁站),交通设施服务;地铁站;地铁站,150500,[],9号线,113.155127,23.378345,113.1496647,23.38082393,[],广东省,广州市,花都区
BV11605040,凤凰南路(地铁站),交通设施服务;地铁站;地铁站,150500,[],(在建)18号线北延段,113.240112,23.360554,113.2347715,23.3631595,[],广东省,广州市,花都区
BV10024350,高增(地铁站),交通设施服务;地铁站;地铁站,150500,[],3号线北延段;9号线,113.295504,23.355162,113.2901216,23.3577333,[],广东省,广州市,白云区
BV11014910,机场北(2号航站楼)(地铁站),交通设施服务;地铁站;地铁站,150500,[],(在建)22号线北延段;3号线北延段,113.30514,23.395529,113.2997377,23.39807711,[],广东省,广州市,花都区
BV10022634,人和(地铁站),交通设施服务;地铁站;地铁站,150500,[],(在建)22号线北延段;3号线北延段,113.295995,23.335224,113.2906131,23.33779901,[],广东省,广州市,白云区
BV10851524,东风(地铁站),交通设施服务;地铁站;地铁站,150500,[],14号线,113.600801,23.566233,113.5956975,23.56900622,[],广东省,广州市,从化区
BV10851522,从化客运站(地铁站),交通设施服务;地铁站;地铁站,150500,[],14号线,113.594721,23.531769,113.5896173,23.53454122,[],广东省,广州市,从化区
BV10851516,赤草(地铁站),交通设施服务;地铁站;地铁站,150500,[],14号线,113.560204,23.501199,113.5550556,23.50394037,[],广东省,广州市,从化区
BV10851519,神岗(地铁站),交通设施服务;地铁站;地铁站,150500,[],14号线,113.517592,23.475161,113.5123227,23.47780288,[],广东省,广州市,从化区
BV10593222,钟岗(地铁站),交通设施服务;地铁站;地铁站,150500,[],21号线,113.792047,23.279317,113.7868953,23.28197209,[],广东省,广州市,增城区
BV10593227,增城广场(地铁站),交通设施服务;地铁站;地铁站,150500,[],21号线,113.8138,23.278362,113.8087008,23.28105302,[],广东省,广州市,增城区
BV10593233,山田(地铁站),交通设施服务;地铁站;地铁站,150500,[],21号线,113.744845,23.276504,113.7396313,23.27912909,[],广东省,广州市,增城区
BV10697442,朱村(地铁站),交通设施服务;地铁站;地铁站,150500,[],21号线,113.701572,23.272318,113.6963788,23.27498541,[],广东省,广州市,增城区
BV10593229,凤岗(地铁站),交通设施服务;地铁站;地铁站,150500,[],21号线,113.670634,23.275961,113.6654849,23.27868306,[],广东省,广州市,增城区
BV10593220,坑贝(地铁站),交通设施服务;地铁站;地铁站,150500,[],21号线,113.642606,23.278769,113.6374977,23.28154047,[],广东省,广州市,增城区
BV10851520,知识城(地铁站),交通设施服务;地铁站;地铁站,150500,[],14号线支线/知识城线,113.525198,23.349377,113.5199627,23.35205853,[],广东省,广州市,黄埔区
BV10851514,何棠下(地铁站),交通设施服务;地铁站;地铁站,150500,[],14号线支线/知识城线,113.543688,23.33119,113.5385102,23.33392246,[],广东省,广州市,黄埔区
BV10593236,中新(地铁站),交通设施服务;地铁站;地铁站,150500,[],21号线,113.613131,23.285303,113.6080459,23.2881065,[],广东省,广州市,增城区
BV10851526,旺村(地铁站),交通设施服务;地铁站;地铁站,150500,[],14号线支线/知识城线,113.551749,23.323256,113.546593,23.32600752,[],广东省,广州市,黄埔区
BV10851515,汤村(地铁站),交通设施服务;地铁站;地铁站,150500,[],14号线支线/知识城线,113.564686,23.307382,113.5595597,23.31015997,[],广东省,广州市,黄埔区
BV10593235,镇龙(地铁站),交通设施服务;地铁站;地铁站,150500,[],14号线支线/知识城线;21号线,113.593,23.284514,113.5879117,23.28732225,[],广东省,广州市,黄埔区
BV10851509,镇龙北(地铁站),交通设施服务;地铁站;地铁站,150500,[],14号线支线/知识城线,113.576945,23.289584,113.5718403,23.2923816,[],广东省,广州市,黄埔区
BV10593221,镇龙西(地铁站),交通设施服务;地铁站;地铁站,150500,[],21号线,113.573793,23.278088,113.5686844,23.28088575,[],广东省,广州市,黄埔区
BV11095934,金坑(地铁站),交通设施服务;地铁站;地铁站,150500,[],21号线,113.526727,23.249328,113.5215034,23.25204089,[],广东省,广州市,黄埔区
BV10024370,庆盛(地铁站),交通设施服务;地铁站;地铁站,150500,[],4号线,113.490456,22.866999,113.4851328,22.86975942,[],广东省,广州市,南沙区
BV10960126,南横(地铁站),交通设施服务;地铁站;地铁站,150500,[],4号线,113.594381,22.747885,113.5893285,22.75090065,[],广东省,广州市,南沙区
BV10960125,南沙客运港(地铁站),交通设施服务;地铁站;地铁站,150500,[],4号线,113.610968,22.766988,113.6059173,22.76999418,[],广东省,广州市,南沙区
BV10862412,万顷沙(地铁站),交通设施服务;地铁站;地铁站,150500,[],(在建)18号线南延段;18号线,113.557043,22.698398,113.5519405,22.70139092,[],广东省,广州市,南沙区
BV10960127,塘坑(地铁站),交通设施服务;地铁站;地铁站,150500,[],4号线,113.573064,22.753098,113.5679887,22.75609862,[],广东省,广州市,南沙区
BV10015821,金洲(地铁站),交通设施服务;地铁站;地铁站,150500,[],4号线,113.538886,22.792178,113.5337302,22.79510425,[],广东省,广州市,南沙区
BV10960128,大涌(地铁站),交通设施服务;地铁站;地铁站,150500,[],4号线,113.555975,22.759076,113.5508662,22.76204959,[],广东省,广州市,南沙区
BV10960129,广隆(地铁站),交通设施服务;地铁站;地铁站,150500,[],4号线,113.540728,22.772143,113.5355788,22.77508037,[],广东省,广州市,南沙区
BV10960124,飞沙角(地铁站),交通设施服务;地铁站;地铁站,150500,[],4号线,113.540758,22.781854,113.5356082,22.78478822,[],广东省,广州市,南沙区
BV10862413,横沥(地铁站),交通设施服务;地铁站;地铁站,150500,[],18号线,113.511721,22.753453,113.5064797,22.7563177,[],广东省,广州市,南沙区
BV10020680,蕉门(地铁站),交通设施服务;地铁站;地铁站,150500,[],4号线,113.527502,22.800704,113.5223106,22.80359804,[],广东省,广州市,南沙区
BV10024371,黄阁(地铁站),交通设施服务;地铁站;地铁站,150500,[],4号线,113.518768,22.824736,113.5135461,22.82759698,[],广东省,广州市,南沙区
BV10016576,黄阁汽车城(地铁站),交通设施服务;地铁站;地铁站,150500,[],4号线,113.509719,22.835812,113.5044653,22.83864233,[],广东省,广州市,南沙区
BV11030743,广州新城西(地铁站),交通设施服务;地铁站;地铁站,150500,[],(在建)3号线东延段,113.439675,22.938156,113.4342021,22.94076255,[],广东省,广州市,番禺区
BV11030742,金光大道(地铁站),交通设施服务;地铁站;地铁站,150500,[],(在建)3号线东延段,113.457479,22.94227,113.4520472,22.9449102,[],广东省,广州市,番禺区
BV10024367,石(地铁站),交通设施服务;地铁站;地铁站,150500,[],4号线,113.465225,22.957185,113.459814,22.95983758,[],广东省,广州市,番禺区
BV10023067,官桥(地铁站),交通设施服务;地铁站;地铁站,150500,[],4号线,113.443122,22.982352,113.4376531,22.98494556,[],广东省,广州市,番禺区
BV11030744,番禺客运站(地铁站),交通设施服务;地铁站;地铁站,150500,[],(在建)3号线东延段,113.410076,22.936702,113.4045667,22.93927925,[],广东省,广州市,番禺区
BV10024368,海傍(地铁站),交通设施服务;地铁站;地铁站,150500,[],(在建)3号线东延段;4号线,113.475352,22.939553,113.4699734,22.94223997,[],广东省,广州市,番禺区
BV10019880,番禺广场(地铁站),交通设施服务;地铁站;地铁站,150500,[],(在建)3号线东延段;18号线;22号线;3号线,113.385642,22.935482,113.380135,22.93806424,[],广东省,广州市,番禺区
BV10024369,低涌(地铁站),交通设施服务;地铁站;地铁站,150500,[],4号线,113.484818,22.919463,113.479472,22.92218542,[],广东省,广州市,番禺区
BV10024366,新造(地铁站),交通设施服务;地铁站;地铁站,150500,[],4号线,113.415714,23.028182,113.410202,23.03072263,[],广东省,广州市,番禺区
BV10569460,板桥(地铁站),交通设施服务;地铁站;地铁站,150500,[],7号线,113.388139,23.016845,113.382625,23.0193907,[],广东省,广州市,番禺区
BV10019828,东涌(地铁站),交通设施服务;地铁站;地铁站,150500,[],4号线,113.478955,22.885577,113.4735917,22.88829645,[],广东省,广州市,南沙区
BV10024365,大学城南(地铁站),交通设施服务;地铁站;地铁站,150500,[],(在建)12号线;(在建)7号线二期;4号线;7号线,113.400478,23.043408,113.3949589,23.04593808,[],广东省,广州市,番禺区
BV10569458,钟村(地铁站),交通设施服务;地铁站;地铁站,150500,[],7号线,113.316552,22.986726,113.3111551,22.98939391,[],广东省,广州市,番禺区
BV10569461,谢村(地铁站),交通设施服务;地铁站;地铁站,150500,[],7号线,113.295832,22.990579,113.2904736,22.99328073,[],广东省,广州市,番禺区
BV10880418,市广路(地铁站),交通设施服务;地铁站;地铁站,150500,[],22号线,113.336734,22.971476,113.3312969,22.97411223,[],广东省,广州市,番禺区
BV10019725,广州南站(地铁站),交通设施服务;地铁站;地铁站,150500,[],22号线;2号线;7号线;佛山2号线,113.269815,22.988773,113.2644906,22.99150558,[],广东省,广州市,番禺区
BV10024412,石壁(地铁站),交通设施服务;地铁站;地铁站,150500,[],2号线;7号线,113.277964,22.994136,113.272631,22.99685908,[],广东省,广州市,番禺区
BV10024359,汉溪长隆(地铁站),交通设施服务;地铁站;地铁站,150500,[],3号线;7号线,113.329955,22.992812,113.3245303,22.99545189,[],广东省,广州市,番禺区
BV11636646,大洲(地铁站),交通设施服务;地铁站;地铁站,150500,[],7号线,113.257295,22.983794,113.2519789,22.98653518,[],广东省,广州市,番禺区
BV10024358,市桥(地铁站),交通设施服务;地铁站;地铁站,150500,[],3号线,113.361726,22.949743,113.356245,22.95234568,[],广东省,广州市,番禺区
BV10024413,会江(地铁站),交通设施服务;地铁站;地铁站,150500,[],2号线,113.286394,23.013047,113.2810488,23.01575223,[],广东省,广州市,番禺区
BV10019878,大石(地铁站),交通设施服务;地铁站;地铁站,150500,[],3号线,113.321744,23.017761,113.3163345,23.02040575,[],广东省,广州市,番禺区
BV10569459,南村万博(地铁站),交通设施服务;地铁站;地铁站,150500,[],18号线;7号线,113.347555,23.004789,113.3420946,23.00739107,[],广东省,广州市,番禺区
BV10880417,陈头岗(地铁站),交通设施服务;地铁站;地铁站,150500,[],(在建)22号线后通段;22号线,113.265636,23.013218,113.2603133,23.01594281,[],广东省,广州市,番禺区
BV10024414,南浦(地铁站),交通设施服务;地铁站;地铁站,150500,[],2号线,113.293154,23.032929,113.2877972,23.03561642,[],广东省,广州市,番禺区
BV10024360,厦(地铁站),交通设施服务;地铁站;地铁站,150500,[],3号线,113.320837,23.038007,113.3154279,23.04064474,[],广东省,广州市,番禺区
BV10569462,员岗(地铁站),交通设施服务;地铁站;地铁站,150500,[],7号线,113.365641,23.015962,113.3601497,23.01853062,[],广东省,广州市,番禺区
BV10862414,沙溪(地铁站),交通设施服务;地铁站;地铁站,150500,[],18号线,113.338357,23.036197,113.3329123,23.03880226,[],广东省,广州市,番禺区
BV10024415,洛溪(地铁站),交通设施服务;地铁站;地铁站,150500,[],2号线,113.298665,23.042896,113.2932983,23.04557076,[],广东省,广州市,番禺区
BV11541223,南浦西(地铁站),交通设施服务;地铁站;地铁站,150500,[],(在建)22号线后通段,113.260524,23.038469,113.2552028,23.04118547,[],广东省,广州市,番禺区
BV11030738,姬堂(地铁站),交通设施服务;地铁站;地铁站,150500,[],(在建)7号线二期,113.45604,23.132491,113.4505915,23.13504718,[],广东省,广州市,黄埔区
BV11030727,加庄(地铁站),交通设施服务;地铁站;地铁站,150500,[],(在建)7号线二期,113.460374,23.148535,113.4549361,23.15109489,[],广东省,广州市,黄埔区
BV10994105,珠村(地铁站),交通设施服务;地铁站;地铁站,150500,[],(在建)13号线二期,113.420673,23.116653,113.4151595,23.11915982,[],广东省,广州市,天河区
BV10014127,大沙地(地铁站),交通设施服务;地铁站;地铁站,150500,[],5号线,113.446074,23.103227,113.4406032,23.10577437,[],广东省,广州市,黄埔区
BV10014561,黄村(地铁站),交通设施服务;地铁站;地铁站,150500,[],21号线;4号线,113.40705,23.132086,113.401526,23.13457948,[],广东省,广州市,天河区
BV11095937,神舟路(地铁站),交通设施服务;地铁站;地铁站,150500,[],21号线,113.431751,23.165213,113.4262486,23.16771248,[],广东省,广州市,黄埔区
BV11095938,科学城(地铁站),交通设施服务;地铁站;地铁站,150500,[],21号线,113.44952,23.165789,113.4440529,23.16831816,[],广东省,广州市,黄埔区
BV11095936,大观南路(地铁站),交通设施服务;地铁站;地铁站,150500,[],21号线,113.406947,23.144575,113.4014221,23.14706349,[],广东省,广州市,天河区
BV10013815,大沙东(地铁站),交通设施服务;地铁站;地铁站,150500,[],(在建)7号线二期;5号线,113.458515,23.106216,113.4530749,23.10878855,[],广东省,广州市,黄埔区
BV10024383,鱼珠(地铁站),交通设施服务;地铁站;地铁站,150500,[],(在建)13号线二期;13号线;5号线,113.432281,23.100343,113.4267839,23.10286914,[],广东省,广州市,黄埔区
BV11030740,科丰路(地铁站),交通设施服务;地铁站;地铁站,150500,[],(在建)7号线二期,113.466329,23.162859,113.4609073,23.16542807,[],广东省,广州市,黄埔区
BV10024381,三溪(地铁站),交通设施服务;地铁站;地铁站,150500,[],5号线,113.415784,23.104098,113.4102669,23.10660647,[],广东省,广州市,天河区
BV10021532,文冲(地铁站),交通设施服务;地铁站;地铁站,150500,[],(在建)5号线东延段;5号线,113.469004,23.103796,113.4635944,23.10639563,[],广东省,广州市,黄埔区
BV10791946,暹岗(地铁站),交通设施服务;地铁站;地铁站,150500,[],6号线,113.460177,23.172296,113.454737,23.17484625,[],广东省,广州市,黄埔区
BV10827181,裕丰围(地铁站),交通设施服务;地铁站;地铁站,150500,[],(在建)7号线二期;13号线,113.455011,23.094934,113.4495624,23.09750325,[],广东省,广州市,黄埔区
BV10014611,车陂(地铁站),交通设施服务;地铁站;地铁站,150500,[],(在建)13号线二期;4号线,113.395583,23.124279,113.3900588,23.12677607,[],广东省,广州市,天河区
BV10018486,东圃(地铁站),交通设施服务;地铁站;地铁站,150500,[],5号线,113.401562,23.109392,113.3960384,23.11189419,[],广东省,广州市,天河区
BV11095935,天河智慧城(地铁站),交通设施服务;地铁站;地铁站,150500,[],21号线,113.403184,23.163275,113.3976569,23.16575573,[],广东省,广州市,天河区
BV10593225,苏元(地铁站),交通设施服务;地铁站;地铁站,150500,[],21号线;6号线,113.468679,23.17096,113.4632638,23.17353207,[],广东省,广州市,黄埔区
BV11095939,棠东(地铁站),交通设施服务;地铁站;地铁站,150500,[],21号线,113.389744,23.130922,113.3842213,23.13341877,[],广东省,广州市,天河区
BV10014268,动物园(地铁站),交通设施服务;地铁站;地铁站,150500,[],5号线,113.307292,23.134713,113.3019033,23.13733507,[],广东省,广州市,越秀区
BV10994094,梅东路(地铁站),交通设施服务;地铁站;地铁站,150500,[],(在建)13号线二期,113.305989,23.131875,113.300603,23.13450047,[],广东省,广州市,越秀区
BV10018660,区庄(地铁站),交通设施服务;地铁站;地铁站,150500,[],5号线;6号线,113.296681,23.134486,113.2913115,23.13712563,[],广东省,广州市,越秀区
BV10014266,黄花岗(地铁站),交通设施服务;地铁站;地铁站,150500,[],6号线,113.299907,23.141128,113.2945315,23.14375991,[],广东省,广州市,越秀区
BV10994103,农林下路(地铁站),交通设施服务;地铁站;地铁站,150500,[],(在建)13号线二期,113.295499,23.130883,113.2901318,23.13352588,[],广东省,广州市,越秀区
BV10024379,杨箕(地铁站),交通设施服务;地铁站;地铁站,150500,[],1号线;5号线,113.308645,23.128031,113.3032542,23.13065338,[],广东省,广州市,越秀区
BV10014270,沙河顶(地铁站),交通设施服务;地铁站;地铁站,150500,[],6号线,113.306967,23.147276,113.3015781,23.14989366,[],广东省,广州市,天河区
BV10024378,淘金(地铁站),交通设施服务;地铁站;地铁站,150500,[],5号线,113.286561,23.136378,113.2812073,23.13903118,[],广东省,广州市,越秀区
BV10992382,署前路(地铁站),交通设施服务;地铁站;地铁站,150500,[],(在建)10号线,113.295609,23.121636,113.2902422,23.12428244,[],广东省,广州市,越秀区
BV10992381,广州大道中(地铁站),交通设施服务;地铁站;地铁站,150500,[],(在建)10号线,113.315727,23.125204,113.3103224,23.12781471,[],广东省,广州市,天河区
BV10994108,建设六马路(地铁站),交通设施服务;地铁站;地铁站,150500,[],(在建)12号线;(在建)13号线二期,113.285256,23.131557,113.2799045,23.13421375,[],广东省,广州市,越秀区
BV10992378,寺右新马路(地铁站),交通设施服务;地铁站;地铁站,150500,[],(在建)10号线,113.31211,23.119646,113.306713,23.12226558,[],广东省,广州市,越秀区
BV10014336,体育西路(地铁站),交通设施服务;地铁站;地铁站,150500,[],1号线;3号线;3号线北延段,113.321503,23.131138,113.3160863,23.1337355,[],广东省,广州市,天河区
BV10013935,烈士陵园(地铁站),交通设施服务;地铁站;地铁站,150500,[],(在建)12号线;1号线,113.285663,23.126704,113.2803112,23.12936219,[],广东省,广州市,越秀区
BV10024380,五羊(地铁站),交通设施服务;地铁站;地铁站,150500,[],5号线,113.314249,23.119843,113.3088477,23.1224586,[],广东省,广州市,越秀区
BV10992386,天河路(地铁站),交通设施服务;地铁站;地铁站,150500,[],(在建)10号线,113.323035,23.133672,113.317615,23.13626558,[],广东省,广州市,天河区
BV10018546,沙河(地铁站),交通设施服务;地铁站;地铁站,150500,[],(在建)11号线内环;(在建)11号线外环;6号线,113.312511,23.152064,113.307111,23.15466992,[],广东省,广州市,天河区
BV11409639,田心村(地铁站),交通设施服务;地铁站;地铁站,150500,[],(在建)11号线内环;(在建)11号线外环,113.299717,23.154283,113.2943409,23.15691005,[],广东省,广州市,越秀区
BV10024347,体育中心南(地铁站),交通设施服务;地铁站;地铁站,150500,[],APM线,113.323876,23.134275,113.3184542,23.13686674,[],广东省,广州市,天河区
BV10851527,钟落潭(地铁站),交通设施服务;地铁站;地铁站,150500,[],14号线,113.400686,23.375649,113.395144,23.3780668,[],广东省,广州市,白云区
BV11605042,方石(地铁站),交通设施服务;地铁站;地铁站,150500,[],(在建)18号线北延段;(在建)22号线北延段,113.280685,23.319149,113.2753268,23.32174818,[],广东省,广州市,白云区
BV10851521,竹料(地铁站),交通设施服务;地铁站;地铁站,150500,[],14号线,113.368332,23.348496,113.3628142,23.35094251,[],广东省,广州市,白云区
BV10024352,嘉禾望岗(地铁站),交通设施服务;地铁站;地铁站,150500,[],(在建)14号线二期;14号线;2号线;3号线北延段,113.289243,23.23746,113.2838785,23.24007253,[],广东省,广州市,白云区
BV10024351,龙归(地铁站),交通设施服务;地铁站;地铁站,150500,[],3号线北延段,113.300834,23.288736,113.2954468,23.29131543,[],广东省,广州市,白云区
BV10851513,太平(地铁站),交通设施服务;地铁站;地铁站,150500,[],14号线,113.491955,23.45209,113.4865975,23.4546572,[],广东省,广州市,从化区
BV10851528,新和(地铁站),交通设施服务;地铁站;地铁站,150500,[],14号线;14号线支线/知识城线,113.46706,23.413259,113.4616234,23.41576054,[],广东省,广州市,白云区
BV10851525,马沥(地铁站),交通设施服务;地铁站;地铁站,150500,[],14号线,113.450388,23.393877,113.4449073,23.39634267,[],广东省,广州市,白云区
BV10851510,红卫(地铁站),交通设施服务;地铁站;地铁站,150500,[],14号线支线/知识城线,113.487415,23.399261,113.4820454,23.40182149,[],广东省,广州市,黄埔区
BV11653281,机场东(3号航站楼)(地铁站),交通设施服务;地铁站;地铁站,150500,[],(在建)22号线北延段,113.320413,23.364529,113.3149826,23.36705514,[],广东省,广州市,白云区
BV10851517,太和(地铁站),交通设施服务;地铁站;地铁站,150500,[],14号线,113.347197,23.299284,113.3417171,23.30177548,[],广东省,广州市,白云区
BV10851511,夏良(地铁站),交通设施服务;地铁站;地铁站,150500,[],14号线,113.323505,23.277704,113.3180742,23.28024591,[],广东省,广州市,白云区
BV10851518,新南(地铁站),交通设施服务;地铁站;地铁站,150500,[],14号线支线/知识城线,113.495228,23.377232,113.4898871,23.37981964,[],广东省,广州市,黄埔区
BV11605043,白云城市中心(地铁站),交通设施服务;地铁站;地铁站,150500,[],(在建)18号线北延段;(在建)22号线北延段,113.280164,23.260519,113.2748105,23.26313525,[],广东省,广州市,白云区
BV10851512,枫下(地铁站),交通设施服务;地铁站;地铁站,150500,[],14号线支线/知识城线,113.508322,23.363059,113.5030281,23.36568883,[],广东省,广州市,黄埔区
BV10851523,白云东平(地铁站),交通设施服务;地铁站;地铁站,150500,[],(在建)18号线北延段;14号线,113.317841,23.25117,113.3124236,23.25373072,[],广东省,广州市,白云区
BV10839960,蛐(地铁站),交通设施服务;地铁站;地铁站,150500,[],8号线,113.216982,23.236888,113.2116331,23.2395091,[],广东省,广州市,白云区
BV11653285,夏茅(地铁站),交通设施服务;地铁站;地铁站,150500,[],(在建)22号线北延段;(规划)24号线,113.259321,23.227054,113.2539877,23.22969641,[],广东省,广州市,白云区
BV11031575,彭边(地铁站),交通设施服务;地铁站;地铁站,150500,[],(在建)14号线二期,113.281399,23.227175,113.2760462,23.2298007,[],广东省,广州市,白云区
BV10994100,朝阳(地铁站),交通设施服务;地铁站;地铁站,150500,[],(在建)13号线二期,113.200145,23.226542,113.1947739,23.22914319,[],广东省,广州市,白云区
BV10024395,龙溪(地铁站),交通设施服务;地铁站;地铁站,150500,[],广佛线,113.192391,23.066029,113.1870179,23.06867982,[],广东省,广州市,荔湾区
BV10024396,菊树(地铁站),交通设施服务;地铁站;地铁站,150500,[],广佛线,113.212863,23.065868,113.2075207,23.06855016,[],广东省,广州市,荔湾区
BV10024397,西i(地铁站),交通设施服务;地铁站;地铁站,150500,[],(在建)10号线;(在建)22号线后通段;1号线;广佛线,113.232521,23.066789,113.2271969,23.06948991,[],广东省,广州市,荔湾区
BV10850274,石围塘(地铁站),交通设施服务;地铁站;地铁站,150500,[],(在建)11号线内环;(在建)11号线外环,113.225207,23.103586,113.2198752,23.10626583,[],广东省,广州市,荔湾区
BV10024374,坦尾(地铁站),交通设施服务;地铁站;地铁站,150500,[],5号线;6号线,113.218387,23.125234,113.2130472,23.1278981,[],广东省,广州市,荔湾区
BV10017769,如意坊(地铁站),交通设施服务;地铁站;地铁站,150500,[],(在建)11号线内环;(在建)11号线外环;6号线,113.231286,23.114917,113.2259579,23.117597,[],广东省,广州市,荔湾区
BV10024409,河沙(地铁站),交通设施服务;地铁站;地铁站,150500,[],6号线,113.217405,23.135576,113.2120634,23.13823484,[],广东省,广州市,荔湾区
BV10024375,中山八(地铁站),交通设施服务;地铁站;地铁站,150500,[],(在建)11号线内环;(在建)11号线外环;5号线,113.232727,23.126046,113.227399,23.12872243,[],广东省,广州市,荔湾区
BV10024410,沙贝(地铁站),交通设施服务;地铁站;地铁站,150500,[],6号线,113.211301,23.152323,113.2059509,23.15496768,[],广东省,广州市,白云区
BV10015504,横沙(地铁站),交通设施服务;地铁站;地铁站,150500,[],6号线,113.206791,23.158187,113.2014344,23.16082317,[],广东省,广州市,白云区
BV10024411,浔峰岗(地铁站),交通设施服务;地铁站;地铁站,150500,[],(在建)12号线;6号线,113.201941,23.16411,113.1965769,23.16673662,[],广东省,广州市,白云区
BV10994091,罗冲围(地铁站),交通设施服务;地铁站;地铁站,150500,[],(在建)13号线二期,113.224697,23.145158,113.219362,23.14782057,[],广东省,广州市,白云区
BV10994104,松溪(地铁站),交通设施服务;地铁站;地铁站,150500,[],(在建)13号线二期,113.223522,23.15488,113.2181853,23.15753766,[],广东省,广州市,白云区
BV11032207,里横路(地铁站),交通设施服务;地铁站;地铁站,150500,[],(在建)12号线,113.207208,23.172907,113.201851,23.17553814,[],广东省,广州市,白云区
BV10994092,西洲(地铁站),交通设施服务;地铁站;地铁站,150500,[],(在建)13号线二期,113.224957,23.173367,113.2196203,23.17601891,[],广东省,广州市,白云区
BV10994109,槎头(地铁站),交通设施服务;地铁站;地铁站,150500,[],(在建)12号线;(在建)13号线二期,113.222759,23.184507,113.2174196,23.18715268,[],广东省,广州市,白云区
BV10994095,凰岗(地铁站),交通设施服务;地铁站;地铁站,150500,[],(在建)13号线二期,113.216681,23.193744,113.2113347,23.19637975,[],广东省,广州市,白云区
BV10994096,庆丰(地铁站),交通设施服务;地铁站;地铁站,150500,[],(在建)13号线二期,113.215594,23.205206,113.2102456,23.20783634,[],广东省,广州市,白云区
BV10839963,石井(地铁站),交通设施服务;地铁站;地铁站,150500,[],8号线,113.231799,23.211101,113.2264648,23.21374455,[],广东省,广州市,白云区
BV10839965,亭岗(地铁站),交通设施服务;地铁站;地铁站,150500,[],8号线,113.219962,23.222616,113.2146173,23.22524522,[],广东省,广州市,白云区
BV10827185,新塘(地铁站),交通设施服务;地铁站;地铁站,150500,[],13号线,113.604472,23.131731,113.5993978,23.13459235,[],广东省,广州市,增城区
BV10827182,白江(地铁站),交通设施服务;地铁站;地铁站,150500,[],13号线,113.595627,23.123235,113.5905508,23.12610065,[],广东省,广州市,增城区
BV10827184,新沙(地铁站),交通设施服务;地铁站;地铁站,150500,[],13号线,113.649417,23.136863,113.6443091,23.13967312,[],广东省,广州市,增城区
BV10827186,官湖(地铁站),交通设施服务;地铁站;地铁站,150500,[],13号线,113.636569,23.137226,113.6314771,23.14005626,[],广东省,广州市,增城区
BV10827183,沙村(地铁站),交通设施服务;地铁站;地铁站,150500,[],13号线,113.570399,23.11059,113.565296,23.11344413,[],广东省,广州市,增城区
BV10827178,南岗(地铁站),交通设施服务;地铁站;地铁站,150500,[],13号线,113.541486,23.09528,113.5363177,23.09808819,[],广东省,广州市,黄埔区
BV10994101,黄埔客运港(地铁站),交通设施服务;地铁站;地铁站,150500,[],(在建)5号线东延段,113.524644,23.052262,113.5194267,23.05504515,[],广东省,广州市,黄埔区
BV10994090,广州开发区(地铁站),交通设施服务;地铁站;地铁站,150500,[],(在建)5号线东延段,113.5252,23.063405,113.5199838,23.06618493,[],广东省,广州市,黄埔区
BV10994089,保盈大道(地铁站),交通设施服务;地铁站;地铁站,150500,[],(在建)5号线东延段,113.526077,23.074835,113.5208629,23.07761249,[],广东省,广州市,黄埔区
BV10827177,夏园(地铁站),交通设施服务;地铁站;地铁站,150500,[],(在建)5号线东延段;13号线,113.518376,23.082901,113.5131357,23.08565342,[],广东省,广州市,黄埔区
BV10791945,金峰(地铁站),交通设施服务;地铁站;地铁站,150500,[],6号线,113.451071,23.181316,113.4456066,23.18384249,[],广东省,广州市,黄埔区
BV10014566,车陂南(地铁站),交通设施服务;地铁站;地铁站,150500,[],4号线;5号线,113.390181,23.116273,113.3846591,23.11877548,[],广东省,广州市,天河区
BV11661373,双岗(地铁站),交通设施服务;地铁站;地铁站,150500,[],13号线,113.474331,23.094468,113.4689386,23.09708583,[],广东省,广州市,黄埔区
BV11030724,洪圣沙(地铁站),交通设施服务;地铁站;地铁站,150500,[],(在建)7号线二期,113.443703,23.08257,113.4382285,23.08512159,[],广东省,广州市,黄埔区
BV10791940,黄陂(地铁站),交通设施服务;地铁站;地铁站,150500,[],6号线,113.433738,23.188379,113.4282373,23.19087249,[],广东省,广州市,黄埔区
BV10994102,棠下(地铁站),交通设施服务;地铁站;地铁站,150500,[],(在建)13号线二期,113.382388,23.125425,113.3768704,23.12792894,[],广东省,广州市,天河区
BV10827179,双岗(地铁站),交通设施服务;地铁站;地铁站,150500,[],(在建)5号线东延段,113.484201,23.097869,113.4788409,23.10051342,[],广东省,广州市,黄埔区
BV10791944,萝岗(地铁站),交通设施服务;地铁站;地铁站,150500,[],(在建)7号线二期;6号线,113.481099,23.175589,113.4757232,23.17819353,[],广东省,广州市,黄埔区
BV11030734,长洲(地铁站),交通设施服务;地铁站;地铁站,150500,[],(在建)7号线二期;(规划)8号线东延段,113.429061,23.075862,113.4235607,23.0783943,[],广东省,广州市,黄埔区
BV10014015,科韵路(地铁站),交通设施服务;地铁站;地铁站,150500,[],5号线,113.377215,23.11928,113.3717025,23.12179114,[],广东省,广州市,天河区
BV10791939,高塘石(地铁站),交通设施服务;地铁站;地铁站,150500,[],6号线,113.410408,23.191057,113.4048814,23.19352878,[],广东省,广州市,天河区
BV10593223,水西(地铁站),交通设施服务;地铁站;地铁站,150500,[],(在建)7号线二期;21号线,113.479087,23.186907,113.4737038,23.18950157,[],广东省,广州市,黄埔区
BV10024362,万胜围(地铁站),交通设施服务;地铁站;地铁站,150500,[],(规划)8号线东延段;4号线;8号线,113.38456,23.097759,113.3790427,23.10027261,[],广东省,广州市,海珠区
BV11030728,水西北(地铁站),交通设施服务;地铁站;地铁站,150500,[],(在建)7号线二期,113.475153,23.194637,113.4697565,23.19721771,[],广东省,广州市,黄埔区
BV10791943,香雪(地铁站),交通设施服务;地铁站;地铁站,150500,[],6号线,113.501224,23.172382,113.495918,23.17504754,[],广东省,广州市,黄埔区
BV11030723,深井(地铁站),交通设施服务;地铁站;地铁站,150500,[],(在建)7号线二期,113.410603,23.069534,113.4050848,23.07205441,[],广东省,广州市,黄埔区
BV10791942,柯木i(地铁站),交通设施服务;地铁站;地铁站,150500,[],6号线,113.396602,23.193521,113.3910728,23.19599108,[],广东省,广州市,天河区
BV10827180,南海神庙(地铁站),交通设施服务;地铁站;地铁站,150500,[],13号线,113.497304,23.083128,113.4919902,23.08581759,[],广东省,广州市,黄埔区
BV10994106,庙头路(地铁站),交通设施服务;地铁站;地铁站,150500,[],(在建)5号线东延段,113.502449,23.084998,113.4971532,23.08770233,[],广东省,广州市,黄埔区
BV11030730,仑头(地铁站),交通设施服务;地铁站;地铁站,150500,[],(在建)12号线,113.37551,23.084531,113.3700017,23.08705828,[],广东省,广州市,海珠区
BV10791941,龙洞(地铁站),交通设施服务;地铁站;地铁站,150500,[],6号线,113.37752,23.19096,113.3720023,23.19344303,[],广东省,广州市,天河区
BV11095940,长平(地铁站),交通设施服务;地铁站;地铁站,150500,[],21号线,113.489704,23.210341,113.4843551,23.21295805,[],广东省,广州市,黄埔区
BV10024363,官洲(地铁站),交通设施服务;地铁站;地铁站,150500,[],(在建)12号线;4号线,113.376846,23.066862,113.3713375,23.06939536,[],广东省,广州市,海珠区
BV10024364,大学城北(地铁站),交通设施服务;地铁站;地铁站,150500,[],(在建)12号线;4号线,113.385795,23.057937,113.3802796,23.06046653,[],广东省,广州市,番禺区
BV10024356,燕塘(地铁站),交通设施服务;地铁站;地铁站,150500,[],3号线北延段;6号线,113.327058,23.160257,113.3216279,23.16283246,[],广东省,广州市,天河区
BV10013969,天平架(地铁站),交通设施服务;地铁站;地铁站,150500,[],6号线,113.321353,23.159525,113.3159347,23.1621116,[],广东省,广州市,天河区
BV10024343,海心沙(地铁站),交通设施服务;地铁站;地铁站,150500,[],APM线,113.324063,23.111378,113.3186424,23.11397866,[],广东省,广州市,天河区
BV10014669,猎德(地铁站),交通设施服务;地铁站;地铁站,150500,[],5号线,113.332105,23.118539,113.3266673,23.12112139,[],广东省,广州市,天河区
BV10850285,天河东(地铁站),交通设施服务;地铁站;地铁站,150500,[],(在建)11号线内环;(在建)11号线外环,113.33681,23.141525,113.3313612,23.14408925,[],广东省,广州市,天河区
BV10992385,滨江东路(地铁站),交通设施服务;地铁站;地铁站,150500,[],(在建)10号线,113.291616,23.10408,113.2862569,23.10673949,[],广东省,广州市,海珠区
BV10024407,北京路(地铁站),交通设施服务;地铁站;地铁站,150500,[],6号线,113.270327,23.118762,113.2649935,23.12143897,[],广东省,广州市,越秀区
BV10014530,岗顶(地铁站),交通设施服务;地铁站;地铁站,150500,[],(在建)10号线;3号线,113.339601,23.13488,113.3341471,23.13744168,[],广东省,广州市,天河区
BV10015731,广州塔(地铁站),交通设施服务;地铁站;地铁站,150500,[],3号线;APM线,113.323464,23.106483,113.3180449,23.10908681,[],广东省,广州市,海珠区
BV10994107,石牌南(地铁站),交通设施服务;地铁站;地铁站,150500,[],(在建)13号线二期,113.339508,23.126494,113.3340548,23.12905922,[],广东省,广州市,天河区
BV10850283,大金钟(地铁站),交通设施服务;地铁站;地铁站,150500,[],(在建)11号线内环;(在建)11号线外环,113.277242,23.161761,113.2718986,23.16441485,[],广东省,广州市,白云区
BV10024419,纪念堂(地铁站),交通设施服务;地铁站;地铁站,150500,[],(在建)13号线二期;(规划)24号线;2号线,113.263413,23.132701,113.2580838,23.13537674,[],广东省,广州市,越秀区
BV10016207,公园前(地铁站),交通设施服务;地铁站;地铁站,150500,[],1号线;2号线,113.264183,23.125419,113.2588538,23.12809726,[],广东省,广州市,越秀区
BV10015177,广州火车站(地铁站),交通设施服务;地铁站;地铁站,150500,[],(在建)11号线内环;(在建)11号线外环;(在建)14号线二期;(在建)22号线北延段;2号线;5号线,113.256512,23.148339,113.2511852,23.15101118,[],广东省,广州市,越秀区
BV09001424,越秀公园(地铁站),交通设施服务;地铁站;地铁站,150500,[],2号线,113.261503,23.139768,113.2561745,23.14244183,[],广东省,广州市,越秀区
BV11030729,岭南广场(地铁站),交通设施服务;地铁站;地铁站,150500,[],(在建)12号线,113.324389,23.1024,113.3189683,23.10500374,[],广东省,广州市,海珠区
BV10014653,客村(地铁站),交通设施服务;地铁站;地铁站,150500,[],3号线;8号线,113.320331,23.096197,113.314919,23.09881101,[],广东省,广州市,海珠区
BV10850279,广园新村(地铁站),交通设施服务;地铁站;地铁站,150500,[],(在建)11号线内环;(在建)11号线外环;(在建)12号线,113.268876,23.157361,113.2635411,23.16002368,[],广东省,广州市,白云区
BV10018597,海珠广场(地铁站),交通设施服务;地铁站;地铁站,150500,[],2号线;6号线,113.265802,23.115234,113.2604724,23.11791548,[],广东省,广州市,越秀区
BV11030732,景云路(地铁站),交通设施服务;地铁站;地铁站,150500,[],(在建)12号线,113.272087,23.162986,113.2667489,23.16564406,[],广东省,广州市,白云区
BV10994098,花城广场北(地铁站),交通设施服务;地铁站;地铁站,150500,[],(在建)13号线二期,113.322543,23.127515,113.3171244,23.13011199,[],广东省,广州市,天河区
BV10017706,天河南(地铁站),交通设施服务;地铁站;地铁站,150500,[],APM线,113.324479,23.131576,113.3190561,23.13416767,[],广东省,广州市,天河区
BV10024348,林和西(地铁站),交通设施服务;地铁站;地铁站,150500,[],3号线北延段;APM线,113.323902,23.141363,113.3184797,23.14395187,[],广东省,广州市,天河区
BV10014526,体育中心(地铁站),交通设施服务;地铁站;地铁站,150500,[],1号线,113.328379,23.134569,113.3229479,23.13715203,[],广东省,广州市,天河区
BV10850278,云台花园(地铁站),交通设施服务;地铁站;地铁站,150500,[],(在建)11号线内环;(在建)11号线外环,113.292853,23.153917,113.2874886,23.15655468,[],广东省,广州市,越秀区
BV10024346,黄埔大道(地铁站),交通设施服务;地铁站;地铁站,150500,[],APM线,113.32449,23.127054,113.3190674,23.12964747,[],广东省,广州市,天河区
BV11030726,恒福路(地铁站),交通设施服务;地铁站;地铁站,150500,[],(在建)12号线,113.281204,23.143954,113.275857,23.1466106,[],广东省,广州市,越秀区
BV10024361,珠江新城(地铁站),交通设施服务;地铁站;地铁站,150500,[],3号线;5号线,113.321202,23.119366,113.3157867,23.12196883,[],广东省,广州市,天河区
BV10024345,妇儿中心(地铁站),交通设施服务;地铁站;地铁站,150500,[],APM线,113.324558,23.122553,113.3191356,23.12514816,[],广东省,广州市,天河区
BV10024405,东湖(地铁站),交通设施服务;地铁站;地铁站,150500,[],(在建)10号线;(在建)12号线;6号线,113.288583,23.115102,113.2832278,23.11776113,[],广东省,广州市,越秀区
BV10013928,小北(地铁站),交通设施服务;地铁站;地铁站,150500,[],5号线,113.276905,23.139424,113.2715635,23.14208691,[],广东省,广州市,越秀区
BV10862415,冼村(地铁站),交通设施服务;地铁站;地铁站,150500,[],(在建)13号线二期;(在建)18号线后通段;18号线,113.328157,23.125722,113.322727,23.12830901,[],广东省,广州市,天河区
BV11030741,二沙岛(地铁站),交通设施服务;地铁站;地铁站,150500,[],(在建)12号线,113.304376,23.109527,113.2989945,23.1121643,[],广东省,广州市,越秀区
BV10014656,花城大道(地铁站),交通设施服务;地铁站;地铁站,150500,[],APM线,113.324521,23.119227,113.3190989,23.12182358,[],广东省,广州市,天河区
BV10024357,广州东站(地铁站),交通设施服务;地铁站;地铁站,150500,[],(在建)11号线内环;(在建)11号线外环;(在建)18号线北延段;(在建)18号线后通段;1号线;3号线北延段,113.324493,23.151077,113.3190688,23.15366092,[],广东省,广州市,天河区
BV10013932,农讲所(地铁站),交通设施服务;地铁站;地铁站,150500,[],1号线,113.275602,23.126623,113.2702628,23.12929229,[],广东省,广州市,越秀区
BV10014528,石牌桥(地铁站),交通设施服务;地铁站;地铁站,150500,[],(在建)10号线;3号线,113.332124,23.133135,113.3266853,23.13571146,[],广东省,广州市,天河区
BV10024344,大剧院(地铁站),交通设施服务;地铁站;地铁站,150500,[],APM线,113.324428,23.115804,113.3190063,23.11840215,[],广东省,广州市,天河区
BV10994110,仓边路(地铁站),交通设施服务;地铁站;地铁站,150500,[],(在建)13号线二期,113.272686,23.130989,113.2673495,23.13365913,[],广东省,广州市,越秀区
BV10024406,团一大广场(地铁站),交通设施服务;地铁站;地铁站,150500,[],6号线,113.278266,23.118111,113.2729243,23.12078112,[],广东省,广州市,越秀区
BV10014714,华师(地铁站),交通设施服务;地铁站;地铁站,150500,[],(在建)10号线;(在建)11号线内环;(在建)11号线外环;3号线,113.34533,23.14029,113.3398645,23.14283906,[],广东省,广州市,天河区
BV09002686,鹭江(地铁站),交通设施服务;地铁站;地铁站,150500,[],8号线,113.308219,23.095331,113.3028312,23.09796754,[],广东省,广州市,海珠区
BV10850276,梓元岗(地铁站),交通设施服务;地铁站;地铁站,150500,[],(在建)11号线内环;(在建)11号线外环;(规划)24号线,113.263033,23.153492,113.2577026,23.15615971,[],广东省,广州市,白云区
BV10014278,天河客运站(地铁站),交通设施服务;地铁站;地铁站,150500,[],(在建)10号线;3号线;6号线,113.343986,23.171175,113.338521,23.17371449,[],广东省,广州市,天河区
BV10019502,市二宫(地铁站),交通设施服务;地铁站;地铁站,150500,[],2号线,113.26989,23.105996,113.2645577,23.10867853,[],广东省,广州市,海珠区
BV10850282,流花路(地铁站),交通设施服务;地铁站;地铁站,150500,[],(在建)11号线内环;(在建)11号线外环,113.257184,23.139449,113.2518575,23.14212451,[],广东省,广州市,越秀区
BV10016743,梅花园(地铁站),交通设施服务;地铁站;地铁站,150500,[],3号线北延段,113.320408,23.175098,113.3149905,23.17768044,[],广东省,广州市,天河区
BV10022843,潭村(地铁站),交通设施服务;地铁站;地铁站,150500,[],5号线,113.345949,23.117366,113.3404839,23.11992317,[],广东省,广州市,天河区
BV10994097,马场(地铁站),交通设施服务;地铁站;地铁站,150500,[],(在建)13号线二期,113.34892,23.12562,113.3434488,23.12816859,[],广东省,广州市,天河区
BV10014717,中大(地铁站),交通设施服务;地铁站;地铁站,150500,[],8号线,113.292863,23.092124,113.2875027,23.09478667,[],广东省,广州市,海珠区
BV10024400,晓港(地铁站),交通设施服务;地铁站;地铁站,150500,[],8号线,113.281883,23.093066,113.2765386,23.09574253,[],广东省,广州市,海珠区
BV10024418,江南西(地铁站),交通设施服务;地铁站;地铁站,150500,[],2号线,113.273918,23.097214,113.2685825,23.09989688,[],广东省,广州市,海珠区
BV11030737,小金钟(地铁站),交通设施服务;地铁站;地铁站,150500,[],(在建)12号线,113.275888,23.174342,113.2705452,23.17699237,[],广东省,广州市,白云区
BV10992383,中大南门(地铁站),交通设施服务;地铁站;地铁站,150500,[],(在建)10号线,113.296359,23.089016,113.2909931,23.09167476,[],广东省,广州市,海珠区
BV10024408,一德路(地铁站),交通设施服务;地铁站;地铁站,150500,[],6号线,113.257558,23.112836,113.2522332,23.11552215,[],广东省,广州市,越秀区
BV09002687,赤岗(地铁站),交通设施服务;地铁站;地铁站,150500,[],(在建)12号线;8号线,113.334582,23.096448,113.3291408,23.09903479,[],广东省,广州市,海珠区
BV09002689,三元里(地铁站),交通设施服务;地铁站;地铁站,150500,[],2号线,113.256851,23.159402,113.2515233,23.16206979,[],广东省,广州市,白云区
BV10015976,五山(地铁站),交通设施服务;地铁站;地铁站,150500,[],(在建)10号线;3号线,113.351812,23.152833,113.3463337,23.15536582,[],广东省,广州市,天河区
BV10994099,白马岗(地铁站),交通设施服务;地铁站;地铁站,150500,[],(在建)13号线二期,113.355084,23.124653,113.3496019,23.1271916,[],广东省,广州市,天河区
BV10024420,飞翔公园(地铁站),交通设施服务;地铁站;地铁站,150500,[],2号线,113.263635,23.168833,113.2583032,23.1714945,[],广东省,广州市,白云区
BV11605041,京溪路(地铁站),交通设施服务;地铁站;地铁站,150500,[],(在建)18号线北延段,113.332333,23.177047,113.3268909,23.17960601,[],广东省,广州市,白云区
BV10024403,长寿路(地铁站),交通设施服务;地铁站;地铁站,150500,[],1号线,113.242271,23.118402,113.2369473,23.12108594,[],广东省,广州市,荔湾区
BV10024399,昌岗(地铁站),交通设施服务;地铁站;地铁站,150500,[],2号线;8号线,113.277109,23.090093,113.2717705,23.09277586,[],广东省,广州市,海珠区
BV10015269,磨碟沙(地铁站),交通设施服务;地铁站;地铁站,150500,[],18号线;8号线,113.341271,23.098656,113.3358162,23.10122936,[],广东省,广州市,海珠区
BV11030735,云溪公园(地铁站),交通设施服务;地铁站;地铁站,150500,[],(在建)12号线,113.278269,23.180875,113.2729231,23.18352057,[],广东省,广州市,白云区
BV10850272,华景路(地铁站),交通设施服务;地铁站;地铁站,150500,[],(在建)11号线内环;(在建)11号线外环,113.359543,23.133967,113.3540528,23.13649482,[],广东省,广州市,天河区
BV11031577,乐嘉路(地铁站),交通设施服务;地铁站;地铁站,150500,[],(在建)14号线二期,113.260823,23.17094,113.2554927,23.17360201,[],广东省,广州市,白云区
BV10015239,陈家祠(地铁站),交通设施服务;地铁站;地铁站,150500,[],1号线;8号线,113.246439,23.125727,113.2411153,23.12840883,[],广东省,广州市,荔湾区
BV10018365,沙园(地铁站),交通设施服务;地铁站;地铁站,150500,[],8号线;广佛线,113.260586,23.088614,113.2552614,23.09130912,[],广东省,广州市,海珠区
BV10872654,五凤(地铁站),交通设施服务;地铁站;地铁站,150500,[],(在建)10号线;(在建)11号线内环;(在建)11号线外环,113.295746,23.082634,113.2903816,23.08529637,[],广东省,广州市,海珠区
BV10839959,彩虹桥(地铁站),交通设施服务;地铁站;地铁站,150500,[],(在建)11号线内环;(在建)11号线外环;(在建)13号线二期;(在建)22号线北延段;8号线,113.245314,23.133892,113.2399897,23.13657038,[],广东省,广州市,荔湾区
BV10850275,逸景路(地铁站),交通设施服务;地铁站;地铁站,150500,[],(在建)11号线内环;(在建)11号线外环,113.304165,23.081997,113.2987858,23.08464611,[],广东省,广州市,海珠区
BV10839969,华林寺(地铁站),交通设施服务;地铁站;地铁站,150500,[],8号线,113.247232,23.117839,113.2419089,23.12052412,[],广东省,广州市,荔湾区
BV10015729,黄沙(地铁站),交通设施服务;地铁站;地铁站,150500,[],1号线;6号线,113.239925,23.110248,113.2346012,23.1129345,[],广东省,广州市,荔湾区
BV10024355,京溪南方医院(地铁站),交通设施服务;地铁站;地铁站,150500,[],3号线北延段,113.326126,23.185225,113.3206961,23.1877928,[],广东省,广州市,白云区
BV10024421,白云公园(地铁站),交通设施服务;地铁站;地铁站,150500,[],2号线,113.270966,23.181613,113.2656277,23.18426491,[],广东省,广州市,白云区
BV10013728,文化公园(地铁站),交通设施服务;地铁站;地铁站,150500,[],6号线;8号线,113.249954,23.10898,113.2446313,23.11166887,[],广东省,广州市,荔湾区
BV10850271,上涌公园(地铁站),交通设施服务;地铁站;地铁站,150500,[],(在建)11号线内环;(在建)11号线外环,113.312833,23.079787,113.3074373,23.08242179,[],广东省,广州市,海珠区
BV10593232,天河公园(地铁站),交通设施服务;地铁站;地铁站,150500,[],(在建)11号线内环;(在建)11号线外环;(在建)13号线二期;21号线,113.362879,23.125317,113.3573843,23.12784335,[],广东省,广州市,天河区
BV10024377,西村(地铁站),交通设施服务;地铁站;地铁站,150500,[],5号线;8号线,113.242125,23.142222,113.2367997,23.14489633,[],广东省,广州市,荔湾区
BV10019562,江泰路(地铁站),交通设施服务;地铁站;地铁站,150500,[],(在建)11号线内环;(在建)11号线外环;2号线,113.28057,23.082231,113.275228,23.08491354,[],广东省,广州市,海珠区
BV11303317,同福西(地铁站),交通设施服务;地铁站;地铁站,150500,[],8号线,113.252372,23.101689,113.2470495,23.10438076,[],广东省,广州市,海珠区
BV10024398,宝岗大道(地铁站),交通设施服务;地铁站;地铁站,150500,[],8号线,113.2697,23.086027,113.2643692,23.08871797,[],广东省,广州市,海珠区
BV10014045,凤凰新村(地铁站),交通设施服务;地铁站;地铁站,150500,[],8号线,113.255994,23.094705,113.250671,23.09739905,[],广东省,广州市,海珠区
BV10021812,员村(地铁站),交通设施服务;地铁站;地铁站,150500,[],(在建)11号线内环;(在建)11号线外环;21号线;5号线,113.363756,23.115515,113.3582606,23.11804408,[],广东省,广州市,天河区
BV10024376,西场(地铁站),交通设施服务;地铁站;地铁站,150500,[],(在建)13号线二期;5号线,113.238056,23.137381,113.2327298,23.14005576,[],广东省,广州市,荔湾区
BV10018644,大塘(地铁站),交通设施服务;地铁站;地铁站,150500,[],(在建)11号线内环;(在建)11号线外环;3号线,113.321677,23.077974,113.3162635,23.0805931,[],广东省,广州市,海珠区
BV10024422,白云文化广场(地铁站),交通设施服务;地铁站;地铁站,150500,[],(在建)12号线;2号线,113.275602,23.189574,113.2702585,23.19221897,[],广东省,广州市,白云区
BV10014408,长(地铁站),交通设施服务;地铁站;地铁站,150500,[],6号线,113.349324,23.178369,113.3438485,23.18089631,[],广东省,广州市,天河区
BV11030731,赤沙(地铁站),交通设施服务;地铁站;地铁站,150500,[],(在建)12号线,113.347814,23.089346,113.3423473,23.09191145,[],广东省,广州市,海珠区
BV10024401,新港东(地铁站),交通设施服务;地铁站;地铁站,150500,[],8号线,113.35701,23.098722,113.3515264,23.10126814,[],广东省,广州市,海珠区
BV11031573,岗贝(地铁站),交通设施服务;地铁站;地铁站,150500,[],(在建)14号线二期,113.260678,23.183717,113.255347,23.18637428,[],广东省,广州市,白云区
BV10024417,东晓南(地铁站),交通设施服务;地铁站;地铁站,150500,[],(在建)10号线;2号线,113.294174,23.071333,113.288813,23.0740025,[],广东省,广州市,海珠区
BV11375603,龙潭(地铁站),交通设施服务;地铁站;地铁站,150500,[],(在建)11号线内环;(在建)11号线外环;18号线,113.341155,23.080783,113.3357017,23.08336405,[],广东省,广州市,海珠区
BV10839966,鹅掌坦(地铁站),交通设施服务;地铁站;地铁站,150500,[],8号线,113.235802,23.156818,113.2304736,23.15948403,[],广东省,广州市,白云区
BV10014379,同和(地铁站),交通设施服务;地铁站;地铁站,150500,[],3号线北延段,113.326264,23.19706,113.320833,23.19962321,[],广东省,广州市,白云区
BV10544499,燕岗(地铁站),交通设施服务;地铁站;地铁站,150500,[],(在建)11号线内环;(在建)11号线外环;广佛线,113.271988,23.075142,113.2666559,23.07783578,[],广东省,广州市,海珠区
BV10024423,萧岗(地铁站),交通设施服务;地铁站;地铁站,150500,[],2号线,113.280697,23.19858,113.275347,23.20121649,[],广东省,广州市,白云区
BV10839961,同德(地铁站),交通设施服务;地铁站;地铁站,150500,[],8号线,113.234705,23.163525,113.2293756,23.16618785,[],广东省,广州市,白云区
BV10544498,石溪(地铁站),交通设施服务;地铁站;地铁站,150500,[],(在建)10号线;广佛线,113.285951,23.067937,113.2806028,23.07061923,[],广东省,广州市,海珠区
BV10013860,琶洲(地铁站),交通设施服务;地铁站;地铁站,150500,[],(在建)11号线内环;(在建)11号线外环;8号线,113.3667,23.098516,113.3612016,23.10104803,[],广东省,广州市,海珠区
BV11030733,新市墟(地铁站),交通设施服务;地铁站;地铁站,150500,[],(在建)12号线;(在建)14号线二期,113.263331,23.19468,113.2579977,23.19733204,[],广东省,广州市,白云区
BV10024416,南洲(地铁站),交通设施服务;地铁站;地铁站,150500,[],2号线;广佛线,113.297449,23.064732,113.2920829,23.06739933,[],广东省,广州市,海珠区
BV10850281,芳村大道东(地铁站),交通设施服务;地铁站;地铁站,150500,[],(在建)11号线内环;(在建)11号线外环,113.244654,23.088937,113.2393326,23.09163369,[],广东省,广州市,荔湾区
BV10839962,上步(地铁站),交通设施服务;地铁站;地铁站,150500,[],8号线,113.235759,23.170978,113.2304296,23.17363858,[],广东省,广州市,白云区
BV10850286,南石路(地铁站),交通设施服务;地铁站;地铁站,150500,[],(在建)11号线内环;(在建)11号线外环,113.264429,23.072846,113.2591032,23.07554592,[],广东省,广州市,海珠区
BV10013608,芳村(地铁站),交通设施服务;地铁站;地铁站,150500,[],(在建)11号线内环;(在建)11号线外环;(在建)22号线北延段;(在建)22号线后通段;1号线,113.23587,23.09857,113.2305455,23.10125951,[],广东省,广州市,荔湾区
BV09001425,沙涌(地铁站),交通设施服务;地铁站;地铁站,150500,[],(在建)11号线内环;(在建)11号线外环;广佛线,113.246755,23.083097,113.2414342,23.08579646,[],广东省,广州市,荔湾区
BV10544497,沙涌(地铁站),交通设施服务;地铁站;地铁站,150500,[],(在建)11号线内环;(在建)11号线外环;广佛线,113.246755,23.083097,113.2414342,23.08579646,[],广东省,广州市,荔湾区
BV11057721,聚龙(地铁站),交通设施服务;地铁站;地铁站,150500,[],(在建)12号线;8号线,113.238751,23.181252,113.2334221,23.18391013,[],广东省,广州市,白云区
BV11594457,棠溪(地铁站),交通设施服务;地铁站;地铁站,150500,[],(在建)12号线,113.247648,23.190686,113.24232,23.19334287,[],广东省,广州市,白云区
BV09001423,棠溪(地铁站),交通设施服务;地铁站;地铁站,150500,[],(在建)12号线,113.247648,23.190686,113.24232,23.19334287,[],广东省,广州市,白云区
BV10850277,赤沙(地铁站),交通设施服务;地铁站;地铁站,150500,[],(在建)11号线内环;(在建)11号线外环;(在建)12号线,113.36299,23.084546,113.3574979,23.08708901,[],广东省,广州市,海珠区
BV11031574,马务(地铁站),交通设施服务;地铁站;地铁站,150500,[],(在建)14号线二期,113.263895,23.201642,113.2585609,23.20429123,[],广东省,广州市,白云区
BV11030739,南航新村(地铁站),交通设施服务;地铁站;地铁站,150500,[],(在建)12号线,113.253964,23.196131,113.2486348,23.19878565,[],广东省,广州市,白云区
BV11030725,白云(地铁站),交通设施服务;地铁站;地铁站,150500,[],(在建)22号线北延段;(规划)24号线,113.249536,23.192634,113.2442078,23.19529024,[],广东省,广州市,白云区
BV10992380,大干围(地铁站),交通设施服务;地铁站;地铁站,150500,[],(在建)10号线,113.283593,23.060557,113.2782485,23.06324526,[],广东省,广州市,海珠区
BV10839958,石潭(地铁站),交通设施服务;地铁站;地铁站,150500,[],8号线,113.24101,23.187843,113.2356813,23.19049954,[],广东省,广州市,白云区
BV10014251,江夏(地铁站),交通设施服务;地铁站;地铁站,150500,[],2号线,113.283451,23.211301,113.2780966,23.2139298,[],广东省,广州市,白云区
BV10850280,鹤洞东(地铁站),交通设施服务;地铁站;地铁站,150500,[],(在建)11号线内环;(在建)11号线外环,113.25063,23.072038,113.2453097,23.07474229,[],广东省,广州市,荔湾区
BV10024404,花地湾(地铁站),交通设施服务;地铁站;地铁站,150500,[],1号线,113.23403,23.087055,113.2287054,23.08974829,[],广东省,广州市,荔湾区
BV10791947,植物园(地铁站),交通设施服务;地铁站;地铁站,150500,[],6号线,113.365686,23.190164,113.3601827,23.19266134,[],广东省,广州市,天河区
BV10014515,沥(地铁站),交通设施服务;地铁站;地铁站,150500,[],3号线;广佛线,113.319228,23.054798,113.3138211,23.05743157,[],广东省,广州市,海珠区
BV11031578,创意园(地铁站),交通设施服务;地铁站;地铁站,150500,[],(在建)14号线二期,113.266698,23.213148,113.2613611,23.21579154,[],广东省,广州市,白云区
BV10544496,鹤洞(地铁站),交通设施服务;地铁站;地铁站,150500,[],广佛线,113.240153,23.072495,113.2348318,23.07519735,[],广东省,广州市,荔湾区
BV10024354,永泰(地铁站),交通设施服务;地铁站;地铁站,150500,[],3号线北延段,113.306235,23.219881,113.3008426,23.22247305,[],广东省,广州市,白云区
BV10839968,小坪(地铁站),交通设施服务;地铁站;地铁站,150500,[],8号线,113.243052,23.200518,113.2377229,23.20317053,[],广东省,广州市,白云区
BV10992384,东沙(地铁站),交通设施服务;地铁站;地铁站,150500,[],(在建)10号线,113.263659,23.056835,113.2583347,23.05954214,[],广东省,广州市,荔湾区
BV10024353,白云大道北(地铁站),交通设施服务;地铁站;地铁站,150500,[],3号线北延段,113.29748,23.222149,113.2921032,23.22475467,[],广东省,广州市,白云区
BV10016172,黄边(地铁站),交通设施服务;地铁站;地铁站,150500,[],2号线,113.287376,23.221645,113.2820154,23.22426533,[],广东省,广州市,白云区
BV09001451,鹤南(地铁站),交通设施服务;地铁站;地铁站,150500,[],(在建)14号线二期,113.272333,23.222676,113.2669906,23.22531212,[],广东省,广州市,白云区
BV11031576,鹤南(地铁站),交通设施服务;地铁站;地铁站,150500,[],(在建)14号线二期,113.272333,23.222676,113.2669906,23.22531212,[],广东省,广州市,白云区
BV10992379,广钢新城(地铁站),交通设施服务;地铁站;地铁站,150500,[],(在建)10号线,113.245594,23.057331,113.2402748,23.06004122,[],广东省,广州市,荔湾区
BV11541225,南](地铁站),交通设施服务;地铁站;地铁站,150500,[],(在建)22号线后通段,113.248479,23.050508,113.2431604,23.05322145,[],广东省,广州市,荔湾区
