"id","name","type","typeCode","bizType","address","gcj02_lng","gcj02_lat","wgs84_lng","wgs84_lat","tel","provinceName","cityName","adName"
"B00140W44C","大封门森林公园","风景名胜;公园广场;公园","110101","tour","派潭镇白水寨大道28号","113.781953","23.583050","113.77676062089628","23.585656390823207","[]","广东省","广州市","增城区"
"B0FFGM1UMY","石马龙湿地公园","风景名胜;公园广场;公园","110101","tour","白水寨大道石马龙水库","113.761442","23.575063","113.75622008749981","23.57765273246317","[]","广东省","广州市","增城区"
"B0FFGYKZ8R","增城地质公园","风景名胜;公园广场;公园","110101","tour","[]","113.806961","23.586206","113.8018237570856","23.588849005479556","[]","广东省","广州市","增城区"
"B0HKJ51CLC","和平广场","风景名胜;公园广场;城市广场","110105","tour","仙泉中路3号大丰门景区(北侧)","113.820309","23.589449","113.81520640155613","23.5921163735461","020-82820023","广东省","广州市","增城区"
"B00140V531","青云公园","风景名胜;公园广场;公园","110101","tour","街口街青云路95号","113.583166","23.544596","113.57805204255034","23.547363858011636","[]","广东省","广州市","从化区"
"B00141KB0B","七星体育公园","风景名胜;公园广场;公园","110101","tour","江埔街七星路83号","113.602376","23.536443","113.5972748048206","23.539215009848835","[]","广东省","广州市","从化区"
"B0FFF2IO5P","东洞村文化公园","风景名胜;公园广场;公园","110101","tour","东洞路与东洞南路交叉口东80米","113.793122","23.549885","113.78795447624421","23.552504078551745","[]","广东省","广州市","增城区"
"B001401213","河滨公园","风景名胜;公园广场;公园","110101","tour","河滨北路68号","113.592116","23.548037","113.58700966352954","23.550808996603703","[]","广东省","广州市","从化区"
"B0FFF3UME2","新城广场","风景名胜;公园广场;城市广场","110105","tour","广场路","113.585887","23.539959","113.58077614080042","23.542728378395697","[]","广东省","广州市","从化区"
"B00140UF02","增城广场","风景名胜;公园广场;城市广场","110105","tour","荔城街增城大道8号(增城广场地铁站E口步行280米)","113.817563","23.279552","113.81247368440434","23.282249570411405","[]","广东省","广州市","增城区"
"B0FFK8BOAA","森林广场","风景名胜;公园广场;城市广场","110105","tour","温泉镇温泉桃莲村大岭山林场管理处石门国家森林公园石灶景区内","113.821949","23.621876","113.8168486458086","23.62454970551894","020-87850738","广东省","广州市","从化区"
"B00141JBZX","派潭广场","风景名胜;公园广场;城市广场","110105","tour","榕林路108号","113.784169","23.489499","113.77898709790185","23.49210681830777","13500220883","广东省","广州市","增城区"
"B0H3TSF4T7","蕨类植物专类园","风景名胜;公园广场;植物园","110103","tour","温泉镇石门国家森林公园森林树木科普园","113.774229","23.632276","113.76902008570738","23.634879701358905","[]","广东省","广州市","从化区"
"B0IRVSR9J1","中桥公园","风景名胜;公园广场;公园","110101","tour","榕林路98号","113.790332","23.485255","113.78516281493441","23.487870931022062","[]","广东省","广州市","增城区"
"B0HGN9P30C","南平村凤凰广场","风景名胜;公园广场;城市广场","110105","tour","石坑街与南平刘屋里交叉口东北460米","113.717495","23.548597","113.7122681335714","23.551202809244177","[]","广东省","广州市","从化区"
"B0FFKXF9L7","邓村石屋森林公园","风景名胜;公园广场;公园","110101","tour","布头路上一巷","113.818410","23.474520","113.81330999213142","23.47718307092338","[]","广东省","广州市","增城区"
"B00140UEVL","增城东湖公园","风景名胜;公园广场;公园","110101","tour","东桥东路26号","113.851127","23.284715","113.84612662635593","23.28747289184785","[]","广东省","广州市","增城区"
"B0FFLC8B7I","尹屋公园","风景名胜;公园广场;公园","110101","tour","高步路与二社沙一巷交叉口东南380米","113.826969","23.463090","113.82189282931274","23.465770012480604","[]","广东省","广州市","增城区"
"B0FFJRS0RL","流溪河从都湿地公园","风景名胜;公园广场;公园","110101","tour","米埗大桥","113.684398","23.682044","113.67920044407104","23.68471640958761","[]","广东省","广州市","从化区"
"B0FFK4A0ZD","从化山顶公园","风景名胜;公园广场;公园","110101","tour","温泉镇景业荔都花园一街21号正北方向160米","113.642802","23.607175","113.63767157056256","23.60991229829297","[]","广东省","广州市","从化区"
"B00140UO0R","王子山森林公园(暂停开放)","风景名胜;公园广场;公园|风景名胜;风景名胜;风景名胜","110101|110200","tour","芙蓉旅游度假区","113.216762","23.568155","113.21139036495026","23.57072598963223","[]","广东省","广州市","花都区"
"B00140UEU6","花都广场","风景名胜;公园广场;城市广场","110105","tour","公益路22号(花都广场地铁站A口步行280米)","113.219875","23.401172","113.21451810243542","23.403755358147556","[]","广东省","广州市","花都区"
"B00140UFDR","天坛公园","风景名胜;公园广场;公园","110101","tour","芙蓉度假区","113.225999","23.512585","113.22064021542171","23.515164416345357","[]","广东省","广州市","花都区"
"B0014243GX","广东花都湖国家湿地公园","风景名胜;公园广场;公园","110101","tour","新华路104号","113.231269","23.376860","113.22592326351811","23.37945762070414","020-86817415","广东省","广州市","花都区"
"B00140V0ET","新世纪广场","风景名胜;公园广场;城市广场","110105","tour","秀全大道41-20附近(花城路地铁站D口步行120米)","113.211297","23.380076","113.20593152560761","23.382652676477907","[]","广东省","广州市","花都区"
"B0FFH124T6","红山村油菜花-铜鼓鼎公园","风景名胜;公园广场;公园","110101","tour","梯面镇红山村","113.281504","23.576593","113.27612727987844","23.579165956329668","[]","广东省","广州市","花都区"
"B00140W3SH","太和文化广场","风景名胜;公园广场;城市广场","110105","tour","太和镇太和北路","113.354802","23.295304","113.34930866618934","23.297783632027905","[]","广东省","广州市","白云区"
"B00140S9QY","花都人民公园","风景名胜;公园广场;公园","110101","tour","紫薇路23号","113.220361","23.408070","113.21500413190702","23.410652811455037","[]","广东省","广州市","花都区"
"B00140AQ80","花果山公园","风景名胜;公园广场;公园","110101","tour","宝华路35号(花果山公园地铁站C口步行270米)","113.219076","23.389285","113.21371907399437","23.3918694597305","[]","广东省","广州市","花都区"
"B00140UERP","马鞍山公园","风景名胜;公园广场;公园","110101","tour","新华镇凤凰北路23-26号","113.237115","23.395094","113.23177106664929","23.397691810750846","[]","广东省","广州市","花都区"
"B00140UFDP","芙蓉峰公园","风景名胜;公园广场;公园","110101","tour","芙蓉度假区","113.225387","23.520585","113.22002716049937","23.523163776692552","020-86853860","广东省","广州市","花都区"
"B00140UFC2","芙蓉水上世界公园","风景名胜;公园广场;公园","110101","tour","狮岭镇芙滨路欣园酒店","113.235656","23.513142","113.23030341423659","23.515728189374062","[]","广东省","广州市","花都区"
"B0GUNOK6T1","温湖休闲公园","风景名胜;公园广场;公园","110101","tour","观湖路芙蓉旅游度假区内","113.226748","23.519847","113.22138932692991","23.522426963843863","[]","广东省","广州市","花都区"
"B00140UFHH","盘古王公园","风景名胜;公园广场;公园","110101","tour","狮岭镇振兴村盘古北路","113.155997","23.483681","113.15052900901411","23.486148728918135","020-86846134","广东省","广州市","花都区"
"B00140UFJV","大岭森林公园","风景名胜;公园广场;公园","110101","tour","大岭南路","113.200471","23.350331","113.19509198028871","23.35289784903626","[]","广东省","广州市","白云区"
"B00140U84W","秀全公园","风景名胜;公园广场;公园","110101","tour","新华路56号","113.214911","23.373157","113.20955048616338","23.3757395713472","[]","广东省","广州市","花都区"
"B00140JBMU","电视塔公园","风景名胜;公园广场;公园","110101","tour","体育路30号","113.218058","23.384837","113.21270028212639","23.38742110814776","[]","广东省","广州市","花都区"
"B00141JURB","狮山公园","风景名胜;公园广场;公园","110101","tour","雄狮中路与振兴路交叉口","113.159067","23.458374","113.15360619477391","23.46084909109707","[]","广东省","广州市","花都区"
"B00140UDZ7","南村公园","风景名胜;公园广场;公园","110101","tour","南村中路(近龙归华侨医院)","113.300002","23.282950","113.29461672322303","23.2855324327674","[]","广东省","广州市","白云区"
"B0FFG1YVN8","龙穴街文化广场","风景名胜;公园广场;城市广场","110105","tour","龙穴路4号附近","113.644796","22.686420","113.6397236421705","22.689410403106255","[]","广东省","广州市","南沙区"
"B00140UFWZ","百万葵园","风景名胜;公园广场;公园","110101","tour","万顷沙新垦十五涌","113.620101","22.628186","113.61505586994001","22.631220638108626","020-83309917;020-84956863;020-84956360","广东省","广州市","南沙区"
"B00140UFT6","南沙滨海公园(建设中)","风景名胜;公园广场;公园","110101","tour","海滨路(近天后宫)","113.617115","22.746871","113.6120636827489","22.749879330097404","[]","广东省","广州市","南沙区"
"B0FFLHKNV3","南沙滨海绿道湿地公园","风景名胜;公园广场;公园","110101","tour","新港大道与红钢路交叉路口往东约80米","113.629105","22.626811","113.62405357526018","22.62983631820934","[]","广东省","广州市","南沙区"
"B00141PT5B","文体公园","风景名胜;公园广场;公园","110101","tour","康华路与红海新街交叉口东80米","113.608685","22.646257","113.60364238311884","22.649296135495394","[]","广东省","广州市","南沙区"
"B00141J5T4","蕉门公园","风景名胜;公园广场;公园","110101","tour","海滨路","113.526499","22.789297","113.52130510520689","22.792192263879638","[]","广东省","广州市","南沙区"
"B00141K61W","沙尾一公园","风景名胜;公园广场;公园","110101","tour","万顷沙镇粤海大道九涌段21号附近","113.572621","22.674298","113.56755006513558","22.67731951676711","[]","广东省","广州市","南沙区"
"B0I21UP6MB","望海口袋公园(建设中)","风景名胜;公园广场;公园","110101","tour","南沙客运港地铁D出口处(南沙客运港地铁站D口旁)","113.609152","22.765751","113.60410163178274","22.76875852251373","[]","广东省","广州市","南沙区"
"B00140W484","十八涌","风景名胜;公园广场;公园","110101","tour","298县道","113.627715","22.613990","113.62266556810029","22.61701910426747","[]","广东省","广州市","南沙区"
"B0FFKECDC9","南沙天后宫-天后广场","风景名胜;公园广场;城市广场","110105","tour","天后路88号南沙天后宫内","113.620854","22.757002","113.61580013898394","22.76000395988513","020-84981223","广东省","广州市","南沙区"
"B00141PT8I","明德公园","风景名胜;公园广场;公园","110101","tour","塘坑中街与前进街交汇路口(塘坑地铁站C口步行420米)","113.571563","22.754380","113.56648519177251","22.757378509160045","[]","广东省","广州市","南沙区"
"B0HBK7T73K","欧式入口景观广场","风景名胜;公园广场;城市广场","110105","tour","港前大道南271号蒲洲花园(东南角)","113.617314","22.760524","113.61226171335865","22.763527923608187","020-84988264","广东省","广州市","南沙区"
"B00140UFZM","钟村镇文化广场","风景名胜;公园广场;城市广场","110105","tour","105国道旁","113.301204","22.965461","113.29583799878364","22.96816506578466","[]","广东省","广州市","番禺区"
"B00141TJLD","长隆野生动物世界","风景名胜;公园广场;动物园","110102","tour","汉溪大道东299号","113.315274","23.002125","113.3098786343019","23.004788622640493","020-84783333;13660026004","广东省","广州市","番禺区"
"B0HUL54QIW","可乐体育公园","风景名胜;公园广场;公园","110101","tour","S5广台高速与S5广台高速出口交叉口东400米","113.294385","22.964693","113.28903078129522","22.967408043025326","13610005128","广东省","广州市","番禺区"
"B0FFI1V58N","廉洁文化广场","风景名胜;公园广场;城市广场","110105","tour","钟屏岔道与骏新路交叉口西360米","113.307219","22.967316","113.3018417433226","22.97000910586162","[]","广东省","广州市","番禺区"
"B0FFM7FU6V","大围公园","风景名胜;公园广场;公园","110101","tour","钟村街道城区钟村锦绣生态园水云居6座","113.307820","22.968276","113.30244153274732","22.970967644339005","[]","广东省","广州市","番禺区"
"B0FFJETLJS","屏二公园","风景名胜;公园广场;公园","110101","tour","屏山东路与屏一桥大路交叉口东240米","113.289773","22.961569","113.28442628592272","22.964291960701463","[]","广东省","广州市","番禺区"
"B0FFK1A2I3","广州国际美食文化广场","风景名胜;公园广场;城市广场","110105","tour","钟盛路与105国道交叉口东北100米","113.301858","22.971293","113.2964904298269","22.973993488576824","[]","广东省","广州市","番禺区"
"B0FFH0INMI","长隆飞鸟乐园","风景名胜;公园广场;动物园","110102","tour","大石镇大边村石北大道","113.277443","23.026222","113.2721084439624","23.028931746028793","020-84796100","广东省","广州市","番禺区"
"B0G0YZL4LI","胜石河亲水公园","风景名胜;公园广场;公园","110101","tour","钟村街胜石中桥旁一河两岸","113.302988","22.976710","113.2976180115265","22.979406284979216","18529247164","广东省","广州市","番禺区"
"B00140UG19","新广场","风景名胜;公园广场;城市广场","110105","tour","市桥街海傍后街八巷3号3层","113.364106","22.933409","113.35862252059091","22.936015178299982","[]","广东省","广州市","番禺区"
"B0FFI3I4WG","铨新水族园林(锦绣花园北区店)","购物服务;花鸟鱼虫市场;宠物市场|风景名胜;公园广场;水族馆","060502|110104","[]","钟村锦绣花园北区9座3号铺","113.309249","22.970916","113.3038676084405","22.973603993146885","15902069228","广东省","广州市","番禺区"
"B0FFLO2JDQ","七梯广场","风景名胜;公园广场;城市广场","110105","tour","钟村锦绣趣园一座七梯广场","113.306930","22.973114","113.30155290306584","22.975805117177778","[]","广东省","广州市","番禺区"
"B00140SJMY","星海公园","风景名胜;公园广场;公园","110101","tour","市桥环城中路120号","113.370467","22.942764","113.36497421489298","22.945357834262957","020-84833980","广东省","广州市","番禺区"
"B0FFFBBZ8H","钟一公园","风景名胜;公园广场;公园","110101","tour","人民路155号","113.317465","22.971888","113.31206725874225","22.974560600794465","[]","广东省","广州市","番禺区"
"B0FFLH2HX7","峰城广场","风景名胜;公园广场;城市广场","110105","tour","钟兴路雄峰城","113.303829","22.970394","113.29845789043114","22.973091591954134","[]","广东省","广州市","番禺区"
"B0FFLAHZRK","大夫山消防主题公园","风景名胜;公园广场;公园","110101","tour","(大夫山森林公园内)","113.317947","22.939583","113.31255045681223","22.942268496463303","020-84801183","广东省","广州市","番禺区"
"B0FFK9Q8KP","钟村街镇标公园","风景名胜;公园广场;公园","110101","tour","钟村钟兴路与兴业大道西交叉口东南40米","113.314625","22.978847","113.3092325002586","22.981521866302383","[]","广东省","广州市","番禺区"
"B0G295PAQ9","琛边小公园","风景名胜;公园广场;公园","110101","tour","汀根村宁仁大街","113.325083","22.945969","113.31967144005337","22.94863829568255","[]","广东省","广州市","番禺区"
"B0G0AMT0SW","锺村文化公园","风景名胜;公园广场;公园","110101","tour","钟村旧105国道与兴业大道交叉口西北","113.313986","22.979200","113.30859475091694","22.981875886866895","[]","广东省","广州市","番禺区"
"B0FFHNTR5P","119消防主题公园","风景名胜;公园广场;公园","110101","tour","凤山路大夫山森林公园(东南角)","113.317873","22.939590","113.31247660620333","22.94227563177519","[]","广东省","广州市","番禺区"
"B00140UFSG","石碁文化广场","风景名胜;公园广场;城市广场|风景名胜;公园广场;公园","110105|110101","tour","岐山中路63号","113.439747","22.955499","113.43427307375204","22.95809829248088","[]","广东省","广州市","番禺区"
"B0FFG9J6TJ","荔新苑公园","风景名胜;公园广场;公园","110101","tour","石基镇荔新大道30号","113.437849","22.953016","113.43237162386185","22.955613290928277","[]","广东省","广州市","番禺区"
"B00141JN5S","小龙公园","风景名胜;公园广场;公园","110101","tour","武城大街150号","113.436459","22.960309","113.43097858270067","22.96290102502136","[]","广东省","广州市","番禺区"
"B0FFLBZDAP","情趣公园","风景名胜;公园广场;水族馆","110104","tour","新村大街北八巷与大龙利民街东一巷交叉口北140米","113.430022","22.958202","113.42453112401158","22.960786040957906","[]","广东省","广州市","番禺区"
"B00140M7QP","番禺广场","风景名胜;公园广场;城市广场","110105","tour","清河东路338号","113.384304","22.933048","113.37879809995108","22.93563222634768","[]","广东省","广州市","番禺区"
"B0H6YOAI1Z","紫荆公园","风景名胜;公园广场;公园","110101","tour","官峰街与竹宾街交叉口南约20米","113.453901","22.958145","113.44845881494041","22.960770407402563","[]","广东省","广州市","番禺区"
"B00140UG3T","旧水坑森林公园","风景名胜;公园广场;公园","110101","tour","[]","113.395669","22.962024","113.39015584302854","22.964590031264205","[]","广东省","广州市","番禺区"
"B0FFFZN9HY","大龙街沙涌村共青团环保公园","风景名胜;公园广场;公园","110101","tour","东文三街与沙环东路交汇处北200米","113.427373","22.956640","113.42187844566004","22.95922157115237","[]","广东省","广州市","番禺区"
"B0FFF2IR5H","石碁村文艺舞台","风景名胜;公园广场;城市广场","110105","tour","石棋村路6号","113.441637","22.949210","113.4361672664792","22.951815169487134","[]","广东省","广州市","番禺区"
"B00141JMDT","文边公园","风景名胜;公园广场;公园","110101","tour","文山南约下街6号","113.412139","22.976509","113.40662807782944","22.97907006706409","[]","广东省","广州市","番禺区"
"B00140UDHL","七星岗公园","风景名胜;公园广场;公园","110101","tour","市新公路","113.394453","22.995359","113.38893785042865","22.997911051478102","[]","广东省","广州市","番禺区"
"B0FFG6DR3O","尖峰山森林公园","风景名胜;公园广场;公园","110101","tour","官峰街","113.456460","22.966364","113.45102389219363","22.968991580546643","[]","广东省","广州市","番禺区"
"B0GUCC6SQ4","新桥文化广场","风景名胜;公园广场;城市广场","110105","tour","同德南街西一巷与永宁路交叉口北60米","113.418120","22.949106","113.41261545666629","22.95168226676372","[]","广东省","广州市","番禺区"
"B00140UDI4","桥头公园","风景名胜;公园广场;公园","110101","tour","石楼镇大岭村安和街","113.477044","22.988676","113.47166751318524","22.991346638023813","[]","广东省","广州市","番禺区"
"B00140UG3J","平康公园","风景名胜;公园广场;公园","110101","tour","番禺大道北1452号","113.384647","22.940535","113.37914034667904","22.943115808788267","[]","广东省","广州市","番禺区"
"B0FFF2U2JZ","流坑公园","风景名胜;公园广场;公园","110101","tour","沙环东路与沙环西路交叉口西100米","113.424670","22.958884","113.41917178527181","22.96146172792804","[]","广东省","广州市","番禺区"
"B0FFHU10W8","傍东公园","风景名胜;公园广场;公园","110101","tour","大龙街傍江东村","113.405254","22.951127","113.39974183789036","22.953696961728276","[]","广东省","广州市","番禺区"
"B0IGZR1ZK4","前锋公园","风景名胜;公园广场;公园","110101","tour","龙泽上街与前锋路交叉口西200米","113.446211","22.926324","113.44075258314672","22.92894716375657","[]","广东省","广州市","番禺区"
"B00141JMD3","新水坑公园","风景名胜;公园广场;公园","110101","tour","石基镇环村北路42号","113.392872","22.975340","113.38735868898581","22.977901267741032","[]","广东省","广州市","番禺区"
"B00141K5I3","莲花山旅游区-百花园","风景名胜;公园广场;公园","110101","tour","石楼镇西门路28号莲花山旅游区内(南侧)","113.502163","22.984232","113.49687293716984","22.986978702155433","020-84861599","广东省","广州市","番禺区"
"B0FFG7YQCR","天河儿童公园","风景名胜;公园广场;公园","110101","tour","珠吉路64号","113.431797","23.131457","113.42629701686452","23.133969788893072","[]","广东省","广州市","天河区"
"B00140N3B3","黄村公园","风景名胜;公园广场;公园","110101","tour","黄村东明里大唐尾东明里大街16号","113.417851","23.126329","113.4123340939905","23.128829735182617","[]","广东省","广州市","天河区"
"B0FFGER7DP","天河儿童公园-吉山橄榄公园","风景名胜;公园广场;公园","110101","tour","东圃镇吉山村吉山上街十一巷","113.430246","23.133525","113.42474348165992","23.13603496633108","[]","广东省","广州市","天河区"
"B00141KAEM","岐山公园","风景名胜;公园广场;公园","110101","tour","岐山小街四巷自编7-2号附近","113.443575","23.136352","113.43809653954125","23.138881267527967","13826222815","广东省","广州市","天河区"
"B0FFMEFT0O","吉山小学公园","风景名胜;公园广场;公园","110101","tour","珠吉路吉山小学","113.428732","23.131885","113.42322737004355","23.134393778040952","[]","广东省","广州市","天河区"
"B00140UG5X","杨桃公园","风景名胜;公园广场;公园","110101","tour","桃园中路7号","113.414008","23.112431","113.40848899264027","23.114935029849136","020-82564052","广东省","广州市","天河区"
"B00140UG6T","车陂公园","风景名胜;公园广场;公园","110101","tour","车陂高地大街3号","113.395961","23.119896","113.39043698086982","23.122394738160196","[]","广东省","广州市","天河区"
"B00141PT57","乞巧苑","风景名胜;公园广场;公园","110101","tour","珠村东环路100号","113.426589","23.121570","113.42108212058899","23.124080500125224","[]","广东省","广州市","天河区"
"B0FFMEENFJ","古丰广场","风景名胜;公园广场;城市广场","110105","tour","吉山新路街与珠吉路交叉口东60米","113.427959","23.127545","113.42245357515598","23.130054619771084","[]","广东省","广州市","天河区"
"B0FFK7VB5A","七巧公园","风景名胜;公园广场;公园","110101","tour","珠吉街东环路110号珠园大厦a308七巧公园","113.425687","23.121046","113.42017897954895","23.12355574614168","[]","广东省","广州市","天河区"
"B00141VTED","莲塘村","风景名胜;公园广场;公园","110101","tour","丰乐北路与石化路交叉口西160米","113.461919","23.139226","113.45648610454255","23.141793293746968","[]","广东省","广州市","黄埔区"
"B00140UG64","黄埔公园","风景名胜;公园广场;公园","110101","tour","黄埔东路68号","113.451616","23.098595","113.44615855502862","23.101155386244486","020-82295608","广东省","广州市","黄埔区"
"B0014034E9","黄埔荔枝公园","风景名胜;公园广场;公园","110101","tour","大沙北路301号黄埔图书馆对面","113.460240","23.108102","113.45480451197639","23.110677846030107","020-82380518","广东省","广州市","黄埔区"
"B0FFG8X6AP","七夕文化广场","风景名胜;公园广场;城市广场","110105","tour","珠吉路","113.426439","23.120876","113.42093196966267","23.12338661869929","[]","广东省","广州市","天河区"
"B00141IG10","玉树公园","风景名胜;公园广场;公园","110101","tour","揽月路1号对面","113.441163","23.162526","113.43567775574022","23.165040773764662","[]","广东省","广州市","黄埔区"
"B0FFHLMJOE","东苑公园","风景名胜;公园广场;公园","110101","tour","港湾路661号","113.446573","23.109273","113.44110294760019","23.111818824649266","[]","广东省","广州市","黄埔区"
"B00140UDEF","狮山公园","风景名胜;公园广场;公园","110101","tour","狮山西路10号","113.442239","23.099064","113.43676029199219","23.10160608576426","[]","广东省","广州市","黄埔区"
"B00141I8EB","姬堂公园","风景名胜;公园广场;公园","110101","tour","大沙街姬堂社区","113.461283","23.132459","113.45584876948823","23.135027451181937","[]","广东省","广州市","黄埔区"
"B00140UDIG","创业公园","风景名胜;公园广场;公园","110101","tour","水西路与香雪三路交叉口(水西地铁站A口步行440米)","113.476253","23.183063","113.47086080460994","23.185651019609303","[]","广东省","广州市","黄埔区"
"B0FFJONH7T","黄村中心公园","风景名胜;公园广场;公园","110101","tour","黄村中心街","113.414352","23.125080","113.40883236771609","23.127579063697873","[]","广东省","广州市","天河区"
"B00140UEO1","广州动物园","风景名胜;公园广场;动物园","110102","tour","先烈中路120号","113.305365","23.140830","113.29997955585785","23.14345296496042","020-38377572","广东省","广州市","越秀区"
"B00140UETI","黄花岗公园","风景名胜;公园广场;公园","110101","tour","先烈中路79号","113.295108","23.139692","113.28974082789453","23.142331949686074","020-37588321;020-87326069","广东省","广州市","越秀区"
"B00140ALXM","东风公园","风景名胜;公园广场;公园","110101","tour","广州大道中199号(天河北路口)","113.313235","23.142681","113.30783420987004","23.145289294944025","020-37597320;020-37597881","广东省","广州市","越秀区"
"B0G2AU4HAY","小南门动物园","风景名胜;公园广场;动物园","110102","tour","环市东路475号小南门动物园","113.304296","23.134757","113.29891295998087","23.137384201523574","[]","广东省","广州市","越秀区"
"B00140SDSF","广州英雄广场","风景名胜;公园广场;城市广场","110105","tour","中山三路25-27号(近中华广场)","113.284055","23.126232","113.27870547119628","23.128892361803736","15918532233","广东省","广州市","越秀区"
"B00140WGV9","花城广场","风景名胜;公园广场;城市广场","110105","tour","珠江新城CBD中心区","113.324596","23.120487","113.31917364389167","23.12308292652081","020-85601882","广东省","广州市","天河区"
"B00140H4G8","云台花园","风景名胜;公园广场;公园","110101","tour","景泰街道云山南路5号","113.293950","23.157315","113.28858354655016","23.159949758401545","020-37229187","广东省","广州市","白云区"
"B00140BNNF","越秀公园","风景名胜;公园广场;公园","110101","tour","解放北路988号","113.265561","23.140096","113.26022986816014","23.142767605386428","020-86661950","广东省","广州市","越秀区"
"B001406D47","五羊新城广场","商务住宅;楼宇;商务写字楼|风景名胜;公园广场;城市广场","120201|110105","[]","寺右新马路111-115号","113.313009","23.120329","113.30761017095953","23.12294667263233","020-87375597","广东省","广州市","越秀区"
"B00140U64Q","天河南文化广场","风景名胜;公园广场;城市广场","110105","tour","体育东横街9号","113.329757","23.129651","113.32432339837607","23.13223337332552","[]","广东省","广州市","天河区"
"B00140C5YX","麓湖公园","风景名胜;公园广场;公园","110101","tour","麓湖路11号","113.281794","23.151091","113.27644578388559","23.15374412998547","[]","广东省","广州市","越秀区"
"B00141IAEZ","广州发展公园","风景名胜;公园广场;公园","110101","tour","二沙岛大通路","113.306273","23.109624","113.30088795494437","23.11225801262811","[]","广东省","广州市","越秀区"
"B0HKLSRYHA","赣州森林动物园","风景名胜;公园广场;动物园","110102","tour","先烈中路120号广州动物园内(东南角)","113.306963","23.138641","113.30157468710216","23.141262078587523","[]","广东省","广州市","越秀区"
"B00140D02H","东山湖公园","风景名胜;公园广场;公园","110101","tour","东湖路123号","113.292052","23.115193","113.28669143815587","23.11784729897253","020-87609086;020-87775672","广东省","广州市","越秀区"
"B0FFLMEDS8","农林东口袋公园","风景名胜;公园广场;公园","110101","tour","农林上路三横路与农林上路四横路交叉口东120米","113.299357","23.126496","113.29398344915562","23.12913464766927","[]","广东省","广州市","越秀区"
"B00140SCPI","海珠广场","风景名胜;公园广场;公园广场","110100","tour","泰康街","113.266173","23.114450","113.26084314597405","23.117131575291044","[]","广东省","广州市","越秀区"
"B0FFG8BF6T","东风广场4期","风景名胜;公园广场;城市广场","110105","tour","梅花路与东花街交叉口东160米","113.310654","23.133055","113.30525894690632","23.135671792174925","[]","广东省","广州市","越秀区"
"B00140U0TF","广州雕塑公园","风景名胜;公园广场;公园","110101","tour","下塘西路545号","113.270611","23.148851","113.26527520313239","23.151515715477796","020-86351663","广东省","广州市","白云区"
"B00140WB82","科苑文化广场","风景名胜;公园广场;城市广场","110105","tour","黄花岗街(黄花岗地铁站B口步行330米)","113.298766","23.142966","113.2933923732696","23.145599006790896","[]","广东省","广州市","越秀区"
"B00140W60B","海心沙亚运公园","风景名胜;公园广场;公园","110101","tour","临江大道","113.325147","23.111698","113.31972410591733","23.11429646497024","020-38089668;020-81215117","广东省","广州市","天河区"
"B0G1P7KPOE","温泉荔枝蜜公园","风景名胜;公园广场;公园","110101","tour","碧泉路63号","113.654559","23.647115","113.64940980339082","23.64983745574474","[]","广东省","广州市","从化区"
"B0HRU7HIID","团建公园","风景名胜;公园广场;公园","110101","tour","良口镇塘料村广大附中英豪学校侧直入100米","113.709899","23.692429","113.7046686625203","23.695061429893673","[]","广东省","广州市","从化区"
"B0FFK7L3V1","御湖城天鹅湖公园","风景名胜;公园广场;公园","110101","tour","灌村路御湖城内","113.634696","23.571780","113.62957726461602","23.57452646546614","[]","广东省","广州市","从化区"
"B0HRVR2SVO","彩虹公园","风景名胜;公园广场;公园","110101","tour","御泉大道353号碧水湾温泉度假村(东南角)","113.716976","23.698512","113.71173933053839","23.70113664637772","[]","广东省","广州市","从化区"
"B00141ID23","河岛公园","风景名胜;公园广场;公园","110101","tour","河滨北路47号","113.594383","23.548833","113.5892779971972","23.551605473650202","[]","广东省","广州市","从化区"
"B00140UF57","增城文化公园景区-荔枝文化公园","风景名胜;公园广场;公园","110101","tour","府佑路1号增城文化公园景区内(东侧)","113.818740","23.288637","113.81365321640257","23.29133413718149","020-82640738","广东省","广州市","增城区"
"B00141J95L","中新广场","风景名胜;公园广场;公园广场","110100","tour","中新镇中福路","113.620508","23.289118","113.61541957905483","23.291914627576432","[]","广东省","广州市","增城区"
"B0FFKVJ5UK","锦鲤公园","风景名胜;公园广场;公园","110101","tour","新岭街千里百花园","113.683282","23.712762","113.67808403512433","23.715442905385725","[]","广东省","广州市","从化区"
"B0HRVXGG9E","东西境森林公园","风景名胜;公园广场;公园","110101","tour","S380东西境古村落","113.812246","23.423829","113.807133130847","23.4264858343604","[]","广东省","广州市","增城区"
"B0HRVXGO6D","西境公园","风景名胜;公园广场;公园","110101","tour","西境村","113.809278","23.421606","113.80415763945929","23.42425785483552","[]","广东省","广州市","增城区"
"B00140W45A","黄何乡村公园","风景名胜;公园广场;公园","110101","tour","正果镇黄屋村","113.934698","23.471064","113.92977056126553","23.473811892148078","[]","广东省","广州市","增城区"
"B0HRVXIAM2","东境荷花公园","风景名胜;公园广场;公园","110101","tour","小楼镇东境村村民委员会","113.813387","23.419650","113.80827738012367","23.42230945020239","[]","广东省","广州市","增城区"
"B0FFLJN82W","湖心岛湿地公园","风景名胜;公园广场;公园","110101","tour","二六一县道汀塘段广州湖心岛旅游风景区(东北角)","113.914990","23.450718","113.91007166779615","23.45348786670145","[]","广东省","广州市","增城区"
"B0HUBADTXT","从化大桥口袋公园","风景名胜;公园广场;公园","110101","tour","从化大桥旁河东","113.600529","23.547419","113.59542664549839","23.550191522205175","[]","广东省","广州市","从化区"
"B0HRVR2LXZ","活水公园","风景名胜;公园广场;公园","110101","tour","小楼镇东境村村民委员会","113.812347","23.419635","113.80723467254217","23.4222925766283","[]","广东省","广州市","增城区"
"B0FFJBZLYT","铜像广场","风景名胜;公园广场;城市广场","110105","tour","博学路与中山路交叉口南20米","113.676921","23.634555","113.67173806979383","23.637233642473735","[]","广东省","广州市","从化区"
"B0HRVXI307","始祖山荔枝公园","风景名胜;公园广场;公园","110101","tour","小楼镇东境村小楼人家","113.794741","23.410055","113.7895864425214","23.412684808721984","[]","广东省","广州市","增城区"
"B0FFFAGYRA","从化灌村文化广场","风景名胜;公园广场;城市广场","110105","tour","政通路与石坑街交叉口东60米","113.715271","23.579414","113.71004369303839","23.58202394011527","[]","广东省","广州市","从化区"
"B0IBF73DPT","增城区荔湖街体育公园","风景名胜;公园广场;公园","110101","tour","荔湖街荔湖社区保利壹号公馆与爱民大道交界","113.816453","23.261068","113.81136196498194","23.263769088460197","[]","广东省","广州市","增城区"
"B0IB7587SO","广州增城丝苗米稻田公园","风景名胜;公园广场;公园","110101","tour","增城丝苗米产业文化展览馆西侧","113.718744","23.289762","113.71353371057079","23.292400945976073","[]","广东省","广州市","增城区"
"B0HGNDMZ5H","硅谷公园","风景名胜;公园广场;水族馆","110104","tour","挂绿湖纵三路与南北大道交叉口东280米","113.823469","23.232789","113.81839859950425","23.23551229678296","[]","广东省","广州市","增城区"
"B0FFHJTA4L","环翠社区洋角街小公园","风景名胜;公园广场;公园","110101","tour","荔乡路与府佑路十字西北角","113.824496","23.279766","113.81942527351885","23.282476491581427","[]","广东省","广州市","增城区"
"B0FFIXSCNJ","儿童自然探索公园","风景名胜;公园广场;水族馆","110104","tour","城郊街西和村天适樱花悠乐园天适樱花悠乐园内(西北角)","113.590606","23.628736","113.58549322011878","23.63151392696536","[]","广东省","广州市","从化区"
"B0FFFAIU6O","荔江公园","风景名胜;公园广场;公园","110101","tour","相江北路与廖村新村路交叉口东20米","113.841396","23.309031","113.83636890331492","23.31176505708186","[]","广东省","广州市","增城区"
"B0FFIH6Q5S","滨江文化广场","风景名胜;公园广场;城市广场","110105","tour","正新街停车场","113.893219","23.417707","113.88828977069369","23.420482992662883","[]","广东省","广州市","增城区"
"B0FFI00QHJ","紫荆体育公园","风景名胜;公园广场;公园","110101","tour","霞福路与霞迳东路交叉口西北460米","113.627681","23.318384","113.62258565475858","23.32116527884859","[]","广东省","广州市","增城区"
"B0FFM3G5CZ","广州桃花源文化广场","风景名胜;公园广场;城市广场","110105","tour","锦一锦绣一径西40米","113.623307","23.476938","113.61820440862715","23.47969846523835","[]","广东省","广州市","从化区"
"B0FFF55DA3","增城儿童公园","风景名胜;公园广场;公园","110101","tour","荔景大道3号锦城花园9号画佳美术培训","113.821560","23.286951","113.81648088139563","23.289653886855945","020-82640738","广东省","广州市","增城区"
"B0HBMALVQD","沁园","风景名胜;公园广场;公园","110101","tour","三百洞街北侧","113.568462","23.471730","113.56333179044964","23.474485128036907","[]","广东省","广州市","从化区"
"B0FFJMQW9T","百灵鸟荔城夏街体育文化公园","风景名胜;公园广场;公园","110101","tour","槎岗西街18号旁","113.831058","23.280926","113.82600498070653","23.28364857228642","[]","广东省","广州市","增城区"
"B0FFFAGZSI","荔韵公园","风景名胜;公园广场;公园","110101","tour","荔湖街道景观大道增江画廊景区","113.820734","23.266804","113.81565399457591","23.269511280591633","[]","广东省","广州市","增城区"
"B0FFIH6Q5T","街心文化公园","风景名胜;公园广场;公园","110101","tour","正光街与正东街交叉口西40米","113.893806","23.418265","113.88887737576287","23.421041125587436","[]","广东省","广州市","增城区"
"B0HRV1C5V5","阶梯广场","风景名胜;公园广场;城市广场","110105","tour","河滨南路与府前路交叉口东南40米","113.588542","23.537283","113.5834337012145","23.54005358956133","[]","广东省","广州市","从化区"
"B00141PREM","西福河公园","风景名胜;公园广场;公园","110101","tour","324国道与290县道交叉口以西","113.660771","23.278875","113.6556370721907","23.281614859108487","[]","广东省","广州市","增城区"
"B0FFI7DRPG","初溪村公园","风景名胜;公园广场;公园","110101","tour","海坣路与海棠路交叉口西北60米","113.856006","23.230224","113.85102116808274","23.233006931454913","[]","广东省","广州市","增城区"
"B0FFFAGZSL","樱花园","风景名胜;公园广场;公园","110101","tour","荔湖街道增滩路19号附近","113.821196","23.269393","113.81611706365992","23.27210036115709","[]","广东省","广州市","增城区"
"B0HRV7UTRK","入口广场","风景名胜;公园广场;城市广场","110105","tour","蓝田堤路与荔苑青云路交叉口东南40米","113.583547","23.535076","113.57843408882138","23.537843941853946","[]","广东省","广州市","从化区"
"B0FFGIN4W0","腊圃公园","风景名胜;公园广场;公园","110101","tour","256省道附近","113.789884","23.419790","113.78471826355563","23.42241154409547","[]","广东省","广州市","增城区"
"B00140V52T","广州增城凤凰山公园","风景名胜;公园广场;公园","110101","tour","西角里40号","113.836649","23.287243","113.83161066748622","23.28997426394993","[]","广东省","广州市","增城区"
"B0HRV7ULNY","桥头公园","风景名胜;公园广场;公园","110101","tour","蓝田堤路与河滨南路交叉口东南80米","113.587395","23.536084","113.58228579308309","23.538854071887258","[]","广东省","广州市","从化区"
"B0HKZHRK5F","绿宝轩·芬享花园","风景名胜;公园广场;公园","110101","tour","从化城郊街花卉大街2183号","113.581159","23.613150","113.57603818239676","23.615921037835783","[]","广东省","广州市","从化区"
"B0FFFAITOK","小楼公园","风景名胜;公园广场;公园","110101","tour","256省道与青山路交叉口东南240米","113.793658","23.410471","113.78850101016442","23.41309916165648","[]","广东省","广州市","增城区"
"B0FFKVC7ZP","广州朗水云天森林公园","风景名胜;公园广场;公园","110101","tour","麻村水库北","113.589211","23.657278","113.58409523733131","23.660059616764013","[]","广东省","广州市","从化区"
"B0FFL9R0PJ","明珠公园","风景名胜;公园广场;公园","110101","tour","广州明珠工业园住宅安置小区(建设南路)","113.533006","23.592986","113.52777922768966","23.595671358851874","[]","广东省","广州市","从化区"
"B0GUKUFGWL","谢美休闲公园","风景名胜;公园广场;公园","110101","tour","荔城街","113.806751","23.348554","113.80162911559091","23.351214448465228","[]","广东省","广州市","增城区"
"B0FFIGJF8L","流溪温泉旅游度假区北广场","风景名胜;公园广场;城市广场","110105","tour","御泉大道","113.720176","23.702257","113.71493694458566","23.704878837701457","[]","广东省","广州市","从化区"
"B0G3LBDU3R","丫髻山稻花鱼生态农业公园","风景名胜;公园广场;公园","110101","tour","良口镇S354","113.640085","23.716405","113.63495055599215","23.719164843925043","[]","广东省","广州市","从化区"
"B0FFG2UJVS","凤凰湖","风景名胜;公园广场;公园","110101","tour","九龙大道","113.538034","23.322741","113.53284060813017","23.325462219012365","[]","广东省","广州市","黄埔区"
"B0FFM14DVN","西河榕树公园","风景名胜;公园广场;公园","110101","tour","福和三星村西河自然村","113.686776","23.351599","113.68159716745464","23.354271203777753","[]","广东省","广州市","增城区"
"B0H2YUXIQ7","邓澄心纪念公园","风景名胜;公园广场;公园","110101","tour","广从公路与菜地塱街交叉口西南460米","113.552109","23.496429","113.54694229496023","23.499155860263603","[]","广东省","广州市","从化区"
"B0H1CS2PE0","南方报业农业公园","风景名胜;公园广场;水族馆","110104","tour","高埔水库","113.724955","23.463044","113.71972965649134","23.46564433246974","[]","广东省","广州市","增城区"
"B0HBL7C3YE","邓山党建公园","风景名胜;公园广场;公园","110101","tour","沙岗二路北侧","113.740658","23.351080","113.73543818249935","23.3536870818716","020-86778764","广东省","广州市","增城区"
"B00140W30Z","盈园","风景名胜;公园广场;公园","110101","tour","朱村大道东255号","113.743809","23.272944","113.73859523025187","23.275570382543833","[]","广东省","广州市","增城区"
"B0HD25C6YE","碧水新邨广场","风景名胜;公园广场;城市广场","110105","tour","生态设计小镇","113.733580","23.705303","113.72833590083432","23.707914047634798","[]","广东省","广州市","从化区"
"B0HUFUW1UD","银场公园","风景名胜;公园广场;公园","110101","tour","正果镇银场村","113.970178","23.398949","113.96519961048074","23.401630128296702","[]","广东省","广州市","增城区"
"B0GR3OK4CR","白水山森林公园","风景名胜;公园广场;公园","110101","tour","朱村街白水山森林公园","113.725693","23.322128","113.72047682864815","23.324751316998025","[]","广东省","广州市","增城区"
"B0I2OARBMV","钓鲤村文化广场","风景名胜;公园广场;城市广场","110105","tour","钓鲤环径与钓鲤径交叉口东60米","113.656491","23.512314","113.65134798635431","23.515023873621928","[]","广东省","广州市","从化区"
"B0FFGLW6ZA","风云岭坪地公园","风景名胜;公园广场;公园","110101","tour","604乡道南50米","113.564534","23.536720","113.55939213096426","23.539467789428077","[]","广东省","广州市","从化区"
"B00141PRWE","日报石南公园","风景名胜;公园广场;公园","110101","tour","温泉镇石南村","113.671063","23.575349","113.66589323212249","23.578032915381662","[]","广东省","广州市","从化区"
"B0IGC7EF2X","光辉村营地公园","风景名胜;公园广场;公园","110101","tour","增江街增正路创鲜农业从莞深高速路旁","113.850168","23.311376","113.84516346779976","23.31412495746733","[]","广东省","广州市","增城区"
"B0FFFE5R13","华圣公园","风景名胜;公园广场;公园","110101","tour","永华路","113.560563","23.224717","113.55543378363893","23.227513708630084","[]","广东省","广州市","黄埔区"
"B0G35SUBSH","朱村街丝苗米文化公园","风景名胜;公园广场;公园","110101","tour","朱村街龙岗村全兴街","113.697941","23.303166","113.69275017374393","23.30583050651563","[]","广东省","广州市","增城区"
"B0FFGJYODA","西和.朗水云天郊野公园","风景名胜;公园广场;公园","110101","tour","麻村水库北","113.589222","23.657312","113.58410624388647","23.66009362651649","[]","广东省","广州市","从化区"
"B0FFLIINPU","富峰苑小公园","风景名胜;公园广场;公园","110101","tour","富和路与隶园中路交叉口西北80米","113.829662","23.298090","113.82460406330277","23.30080507877125","[]","广东省","广州市","增城区"
"B0H0UROQTJ","广州云路威垂钓公园","风景名胜;公园广场;公园","110101","tour","增江街道增正路108号","113.850941","23.310956","113.8459384393728","23.313706378171275","[]","广东省","广州市","增城区"
"B0FFL940YA","塱头村公园","风景名胜;公园广场;公园","110101","tour","塱头村村西路与朗头村村南路交叉口东南60米","113.850040","23.289253","113.84503659621546","23.292007754178957","[]","广东省","广州市","增城区"
"B0I32UKUDS","锦绣社区党建主题公园","风景名胜;公园广场;公园","110101","tour","锦绣御景苑2期旁","113.816780","23.301423","113.811687159442","23.304112963056497","[]","广东省","广州市","增城区"
"B0FFM47MIK","荔湖街·氹塘公园","风景名胜;公园广场;公园","110101","tour","荔湖街道三联村氹塘路14号对面","113.771403","23.274644","113.76621387851988","23.277277512247217","[]","广东省","广州市","增城区"
"B0FFG2GGR0","水生植物园","风景名胜;公园广场;植物园","110103","tour","石门国家森林公园石灶景区内","113.816948","23.620111","113.81183436719242","23.622775175884865","020-87850738","广东省","广州市","从化区"
"B0FFL4PVZG","沿江公园","风景名胜;公园广场;公园","110101","tour","荔城沿江西路与府佑路交叉口南40米","113.828931","23.276483","113.82387250577477","23.27920284985778","[]","广东省","广州市","增城区"
"B00140H71C","碧水湾温泉度假村-碧水湾郊野公园","风景名胜;公园广场;公园","110101","tour","御泉大道353广州从化碧水湾温泉度假村","113.714073","23.700911","113.70883840066926","23.70353969166622","020-87842888","广东省","广州市","从化区"
"B0FFLJHH39","中新镇桥宝公园","风景名胜;公园广场;公园","110101","tour","中国石化凤岗加油站西侧320米","113.661097","23.278303","113.65596261116347","23.28104241971969","[]","广东省","广州市","增城区"
"B0I167W0O6","荔江小学周边口袋公园","风景名胜;公园广场;公园","110101","tour","荔江小学旁","113.822647","23.289959","113.81757060867751","23.292663076587697","[]","广东省","广州市","增城区"
"B0IAYZRQGG","增城区街心公园","风景名胜;公园广场;公园","110101","tour","府佑路与荔乡路交汇处东南角","113.821723","23.279946","113.81664478273709","23.2826512149478","[]","广东省","广州市","增城区"
"B0FFM18XAS","街心公园","风景名胜;公园广场;公园","110101","tour","新龙镇","113.582757","23.277932","113.57766028029575","23.280737632149037","[]","广东省","广州市","黄埔区"
"B0HURS3XCZ","增塘湿地公园","风景名胜;公园广场;公园","110101","tour","石滩镇增塘村","113.764866","23.224783","113.75967151810815","23.227428090236696","[]","广东省","广州市","增城区"
"B0HKUSV498","珠江啤酒广场","风景名胜;公园广场;城市广场","110105","tour","北星路与宝城路交叉口东北60米","113.575684","23.559404","113.57055957432698","23.562166184705504","[]","广东省","广州市","从化区"
"B0HK09OIVI","广州市流溪河碧道-活动广场","风景名胜;公园广场;城市广场","110105","tour","河滨北路与和平路交叉口南220米","113.607325","23.554226","113.60222301505716","23.556996929196856","[]","广东省","广州市","从化区"
"B00140W3VT","白湖公园(暂停开放)","风景名胜;公园广场;公园","110101","tour","一一九省道村尾段","113.846506","23.360901","113.84148886247229","23.36363203016512","[]","广东省","广州市","增城区"
"B0GK4OSQDZ","荔香湖","风景名胜;公园广场;水族馆","110104","tour","长江一路广州城建职业学院","113.612343","23.525250","113.60724225636551","23.52801787413095","[]","广东省","广州市","从化区"
"B0I2CHET7Z","乌石大王公园","风景名胜;公园广场;公园","110101","tour","花三路49号","113.898686","23.440230","113.89376067078759","23.443004575313314","[]","广东省","广州市","增城区"
"B0G0PUFNHG","银苑花园口袋公园(建设中)","风景名胜;公园广场;公园","110101","tour","光明西路","113.823623","23.288392","113.81854934507531","23.29109835911642","[]","广东省","广州市","增城区"
"B0FFKL6HYJ","新时代文明实践广场","风景名胜;公园广场;城市广场","110105","tour","西和樱花街与禾社街交叉口南220米","113.589001","23.622675","113.58388738170382","23.625451596740966","[]","广东省","广州市","从化区"
"B0FFF2TOZ4","平岗公园","风景名胜;公园广场;公园","110101","tour","温泉镇镇平岗","113.680940","23.607210","113.67575271891094","23.609877781128265","[]","广东省","广州市","从化区"
"B0FFI64D9F","从化莱茵广场(建设中)","风景名胜;公园广场;城市广场","110105","tour","从化汽车站附近","113.601881","23.526520","113.59678036562731","23.52929204139012","[]","广东省","广州市","从化区"
"B0H61AOQBF","元洲岗文化中心广场","风景名胜;公园广场;城市广场","110105","tour","广从公路与东北庙街交叉口东40米","113.544227","23.492046","113.53903997284051","23.49475641886016","[]","广东省","广州市","从化区"
"B0HKLSRYIG","囔兽仙花苈广场","风景名胜;公园广场;城市广场","110105","tour","600乡道与西和草塘二街交叉口西南320米","113.581879","23.618648","113.57675865616174","23.62142018617444","[]","广东省","广州市","从化区"
"B0FFG0UA90","文化公园","风景名胜;公园广场;公园","110101","tour","蓝田堤路","113.586116","23.534912","113.5810056957411","23.537681428552368","[]","广东省","广州市","从化区"
"B0FFHW8QY0","清风广场","风景名胜;公园广场;城市广场","110105","tour","城南新村","113.582611","23.542720","113.57749655547426","23.54548744653993","[]","广东省","广州市","从化区"
"B00140W45H","蒙花布","风景名胜;公园广场;公园","110101","tour","正果镇花三路61号","113.896673","23.436376","113.89174610302834","23.439150646092674","[]","广东省","广州市","增城区"
"B0FFKQKPFR","流溪河国家森林公园-中日友好广场","风景名胜;公园广场;城市广场","110105","tour","流溪河国家森林公园内(东北角)","113.790962","23.753240","113.78577606192786","23.755887330321976","020-87843288","广东省","广州市","从化区"
"B0FFH7YUE2","盈林水族馆","风景名胜;公园广场;水族馆","110104","tour","群津街与文市路交叉口西南120米","113.782542","23.488757","113.77735706969919","23.491362951963957","[]","广东省","广州市","增城区"
"B0HRHG0ZKJ","东湖文化广场","风景名胜;公园广场;城市广场","110105","tour","荔城镇增江街","113.848531","23.285400","113.84352402075203","23.288153259792413","[]","广东省","广州市","增城区"
"B00140W45R","正果镇月亮湾公园","风景名胜;公园广场;公园","110101","tour","正果镇番丰村新庙贝3号","113.885383","23.418730","113.8804436993043","23.421501700119098","[]","广东省","广州市","增城区"
"B0G30ZHRVI","挂绿湖荔湖广场","风景名胜;公园广场;城市广场","110105","tour","新城大道与湖美街交叉口西280米","113.813300","23.257813","113.80820089850377","23.26050934597867","[]","广东省","广州市","增城区"
"B0FFLQ3U2B","中新广州知识城九龙湖","风景名胜;公园广场;城市广场","110105","tour","九龙大道","113.526817","23.341732","113.52158748121109","23.344419671370023","[]","广东省","广州市","黄埔区"
"B00141K9EX","凤凰山公园","风景名胜;公园广场;公园","110101","tour","龙湖街道九佛社区九佛建设路","113.525648","23.354255","113.5204138314093","23.35693671029105","[]","广东省","广州市","黄埔区"
"B0HRV7XH7L","增城广场-南广场","风景名胜;公园广场;城市广场","110105","tour","荔城街增城大道8号增城广场(西南角)","113.816441","23.277883","113.81134882072284","23.280578988939308","[]","广东省","广州市","增城区"
"B0H3TLNM5N","朱村街体育文化广场","风景名胜;公园广场;城市广场","110105","tour","运河巷与文明路交叉口东南80米","113.696279","23.272879","113.6910923143994","23.27555487739601","[]","广东省","广州市","增城区"
"B00141OTQ5","鹤之洲湿地公园","风景名胜;公园广场;公园","110101","tour","增江河东岸","113.834254","23.251525","113.82921156509154","23.254262564104852","[]","广东省","广州市","增城区"
"B0FFLDBKOK","六维广场","风景名胜;公园广场;城市广场","110105","tour","九龙镇旺村东路11号(汤村地铁站D口步行370米)","113.562665","23.310499","113.55753446747867","23.313273099294175","[]","广东省","广州市","黄埔区"
"B0H6R19T0S","洋田村文娱广场","风景名胜;公园广场;城市广场","110105","tour","九龙镇洋田村","113.582163","23.316305","113.5770630799741","23.31909968027761","[]","广东省","广州市","黄埔区"
"B00141SYHQ","福和广场","风景名胜;公园广场;城市广场","110105","tour","月芳路83号","113.631733","23.359396","113.6266313468811","23.362162836319435","[]","广东省","广州市","增城区"
"B0H3DSPV3F","主入口广场","风景名胜;公园广场;城市广场","110105","tour","龙湖街道凤湖二路中新广州知识城凤凰湖(南侧)","113.537824","23.321758","113.53263005294727","23.324478951014154","[]","广东省","广州市","黄埔区"
"B0FFMEOFLX","洋田广场","风景名胜;公园广场;城市广场","110105","tour","洋田丫塘路与洋田路交叉口西20米","113.582679","23.317121","113.57757960575653","23.319915827662218","[]","广东省","广州市","黄埔区"
"B0HA2AP9XY","梅园村文化广场","风景名胜;公园广场;城市广场","110105","tour","梅园梅前路与梅园吓山一路交叉口东南240米","113.628239","23.260577","113.62314700888935","23.26337393848168","[]","广东省","广州市","增城区"
"B0H06DEB2O","增城儿童公园-健身广场","风景名胜;公园广场;城市广场","110105","tour","荔景大道增城儿童公园(西南角)","113.819943","23.285738","113.81485962305736","23.288438205538263","020-82640738","广东省","广州市","增城区"
"B0FFL9EGCP","大坦村运动广场","风景名胜;公园广场;城市广场","110105","tour","大坦路与柯岭路交叉路口往东南约210米","113.586058","23.263604","113.58096562171836","23.26641591523589","[]","广东省","广州市","黄埔区"
"B0FFFE929T","旺村文体广场","风景名胜;公园广场;城市广场","110105","tour","九龙大道206号正西方向80米","113.562104","23.312688","113.55697217638082","23.315460652455826","[]","广东省","广州市","黄埔区"
"B0FFLIPG55","山美村新华广场","风景名胜;公园广场;城市广场","110105","tour","中新镇山美村新华社","113.602638","23.316687","113.59755142101419","23.319486510515265","[]","广东省","广州市","增城区"
"B0FFLIQVPE","艺术广场","风景名胜;公园广场;城市广场","110105","tour","金地香山湖南宫墅西北侧120米","113.611878","23.227006","113.60679710094921","23.22982855847714","[]","广东省","广州市","增城区"
"B0H6XUWBAX","坳头公园","风景名胜;公园广场;公园","110101","tour","中新镇坳头村委会对面","113.632129","23.404492","113.62702397783487","23.407250136409562","[]","广东省","广州市","增城区"
"B0HRVL2YXP","文化广场","风景名胜;公园广场;城市广场","110105","tour","荔乡路与民生路交叉口西北260米","113.818305","23.280875","113.8132175705148","23.28357355961299","[]","广东省","广州市","增城区"
"B0FFH7W4BG","三月园艺公园","风景名胜;公园广场;水族馆","110104","tour","新丰路4号","113.826621","23.299202","113.82155474270189","23.30191101576847","13902384328","广东省","广州市","增城区"
"B0FFHHBYIO","朱村街文化广场","风景名胜;公园广场;公园广场","110100","tour","东祠路与朱村大街交叉口东南40米","113.694897","23.276315","113.68971188938059","23.278992198527295","[]","广东省","广州市","增城区"
"B0HKPH8B2I","新龙帝鼎荔枝公园","风景名胜;公园广场;公园","110101","tour","[]","113.524084","23.282318","113.5188495142143","23.285013552796205","[]","广东省","广州市","黄埔区"
"B00141JAPV","兰溪森林公园","风景名胜;公园广场;公园","110101","tour","正果镇兰溪村","113.950655","23.368080","113.9457150916577","23.370813493673094","[]","广东省","广州市","增城区"
"B0FFF2J0IE","井岗文化中心广场","风景名胜;公园广场;城市广场","110105","tour","太平镇","113.530864","23.523042","113.5256352468172","23.525718958886085","[]","广东省","广州市","从化区"
"B0FFFW77U4","水库公园","风景名胜;公园广场;水族馆","110104","tour","东湖西路增城东湖公园","113.847385","23.284124","113.84237517187327","23.286875633548647","[]","广东省","广州市","增城区"
"B0FFHJXQXK","广州市白水山森林公园管理处","风景名胜;公园广场;公园广场","110100","tour","荔城大道197号","113.816220","23.294553","113.81112613274554","23.2972438159862","[]","广东省","广州市","增城区"
"B0HK3OW8NA","邓山观星小镇糖厂公园","风景名胜;公园广场;公园","110101","tour","石田路与关村路交叉口东南340米","113.733815","23.376546","113.72859313717305","23.37915125350403","18998436577","广东省","广州市","增城区"
"B0FFIGB3O8","流溪温泉广场","风景名胜;公园广场;城市广场","110105","tour","良口镇御泉大道60号","113.678640","23.676246","113.67345158948608","23.678928096716223","[]","广东省","广州市","从化区"
"B0H26C272D","滴水岩森林生态康养基地","风景名胜;公园广场;公园","110101","tour","增江街大塘路","113.863557","23.352899","113.85858159186417","23.355659030131772","18102673398","广东省","广州市","增城区"
"B0FFMDBOKH","创鲜番石榴农业公园","风景名胜;公园广场;植物园","110103","tour","增正路与S29从莞深高速入口交叉口东南40米","113.848484","23.310921","113.84347522603301","23.313667184603595","[]","广东省","广州市","增城区"
"B00141PT1O","西堤休闲公园","风景名胜;公园广场;公园","110101","tour","相江北路","113.841990","23.302754","113.83696488666034","23.305490809982032","[]","广东省","广州市","增城区"
"B0HKVS9Y2X","广州市增江画廊碧道-圣皇洲广场","风景名胜;公园广场;城市广场","110105","tour","荔湖街道景观大道增江画廊景区内(南侧)","113.822443","23.264401","113.81736774756733","23.26711222306041","[]","广东省","广州市","增城区"
"B00141PT8T","雁塔公园","风景名胜;公园广场;公园","110101","tour","大桥旁边","113.825893","23.274200","113.82082642106877","23.27691477413958","[]","广东省","广州市","增城区"
"B0FFKEFU0A","湖心岛桑果科普生态文化园","风景名胜;公园广场;植物园","110103","tour","正果镇湖心岛","113.913839","23.447921","113.90892072776037","23.45069179067677","020-82814988","广东省","广州市","增城区"
"B0FFF2N10B","半岛公园","风景名胜;公园广场;公园","110101","tour","广州城建职业学院内","113.607671","23.526733","113.60257083286211","23.52950329463354","[]","广东省","广州市","从化区"
"B00140W4CQ","北星社区文化广场","风景名胜;公园广场;城市广场","110105","tour","北星文化广场(北星路西)","113.586568","23.556453","113.58145668439586","23.559223188705253","[]","广东省","广州市","从化区"
"B0FFF3UMDS","河东广场","风景名胜;公园广场;城市广场","110105","tour","河东北路5号","113.595113","23.544981","113.59000864897762","23.5477534706299","[]","广东省","广州市","从化区"
"B0IRT7FYUM","增联体育公园","风景名胜;公园广场;公园","110101","tour","荔景大道北455号","113.827363","23.308853","113.82229811680709","23.3115608332025","[]","广东省","广州市","增城区"
"B0H64UJXZ5","冠篮公园","风景名胜;公园广场;水族馆","110104","tour","纬六路与经二路交叉口西北80米","113.846698","23.277672","113.84168682729897","23.28042430779297","[]","广东省","广州市","增城区"
"B00140W52D","向阳二社文化广场","风景名胜;公园广场;城市广场","110105","tour","城郊街","113.589542","23.561406","113.58443290410636","23.564177684872323","[]","广东省","广州市","从化区"
"B00141SJC0","石合时代商业文化广场","风景名胜;公园广场;城市广场","110105","tour","608乡道与七林街交叉口西北160米","113.545295","23.559196","113.540106389143","23.561908713398893","[]","广东省","广州市","从化区"
"B0FFGIJ7ZT","溢盈广场","风景名胜;公园广场;城市广场","110105","tour","狮岭大道东","113.192470","23.429791","113.18707239811268","23.432330952691284","[]","广东省","广州市","花都区"
"B0I33UV8SP","紫兰口袋公园","风景名胜;公园广场;公园","110101","tour","花城街三东大道隽悦豪庭南侧","113.193680","23.416639","113.18828536206841","23.41918276210422","[]","广东省","广州市","花都区"
"B0HRCXNOAC","小坊公园","风景名胜;公园广场;公园","110101","tour","106国道与新东里街交叉口东南240米","113.263711","23.411655","113.25836279583758","23.414249610143454","[]","广东省","广州市","花都区"
"B0FFLKJLJA","桂花社区公园","风景名胜;公园广场;公园","110101","tour","迎宾大道大运家园(马鞍山公园地铁站D口步行130米)","113.237073","23.400869","113.23172865820084","23.40346585420802","[]","广东省","广州市","花都区"
"B0G1LK5A2U","马岭森林公园","风景名胜;公园广场;公园","110101","tour","龙聚村连西街","113.422844","23.635740","113.41729687315093","23.638160399729127","[]","广东省","广州市","从化区"
"B0FFK7HSYD","龙聚村体育公园","风景名胜;公园广场;公园","110101","tour","龙潭龙聚街与524乡道交叉口南80米","113.415079","23.647114","113.40952369672722","23.64953021979299","[]","广东省","广州市","从化区"
"B0FFGX67MQ","九龙湖度假区-九龙湖湖滨公园","风景名胜;公园广场;公园","110101","tour","北兴镇山前旅游大道3号中旅·阿那亚·九龙湖生态度假区内(南侧)","113.417539","23.472850","113.41199787212017","23.4752603639179","[]","广东省","广州市","花都区"
"B0H2S5DBFT","百合口袋公园","风景名胜;公园广场;公园","110101","tour","地铁9号线花都广场站C出口","113.224743","23.401568","113.21939069900012","23.404156125533607","[]","广东省","广州市","花都区"
"B0H2S5CWHH","金菊花口袋公园","风景名胜;公园广场;公园","110101","tour","迎宾大道金菊花小区北门","113.216068","23.400584","113.21070698076367","23.403163153603163","[]","广东省","广州市","花都区"
"B0IA5SA9RY","潖江公园","风景名胜;公园广场;公园","110101","tour","城鳌大道西880号","113.428632","23.619180","113.42309349356249","23.6216043802627","[]","广东省","广州市","从化区"
"B0FFG9J0GC","塱头廉洁文化主题公园","风景名胜;公园广场;公园","110101","tour","朗头青云路","113.088812","23.337635","113.08330495023645","23.340065064056702","020-86746081","广东省","广州市","花都区"
"B0FFH89HZ9","花都湖公园(龙荔路)","风景名胜;公园广场;公园","110101","tour","新华路98号","113.231839","23.382033","113.22649326627662","23.384630054092817","[]","广东省","广州市","花都区"
"B0HKZAQW1F","馨庭口袋公园","风景名胜;公园广场;公园","110101","tour","迎宾大道馨庭花园北门","113.228771","23.400892","113.22342194588981","23.403483634198924","[]","广东省","广州市","花都区"
"B00141JU99","文楼公园","风景名胜;公园广场;公园","110101","tour","炭步镇水口村","113.095767","23.341559","113.09025604310527","23.34398635801403","[]","广东省","广州市","花都区"
"B0I3677TTL","双拥主题公园","风景名胜;公园广场;公园","110101","tour","花果山公园","113.219095","23.389270","113.21373809510195","23.391854483122135","[]","广东省","广州市","花都区"
"B0FFILI8MR","藏书院公园","风景名胜;公园广场;公园","110101","tour","藏书院中心路与花都大道交叉口北400米","113.054731","23.318630","113.04927709720442","23.321104525296203","[]","广东省","广州市","花都区"
"B0FFMADC1T","0118分店花都公园","风景名胜;公园广场;公园","110101","tour","新华街公园前路1号(花城路地铁站D口步行480米)","113.213607","23.375589","113.20824474527957","23.378169492686265","[]","广东省","广州市","花都区"
"B00141ID6H","东平文化广场","风景名胜;公园广场;城市广场","110105","tour","东平中路188号","113.311934","23.249734","113.30652852238796","23.252306051207466","[]","广东省","广州市","白云区"
"B0FFFAICFD","天狮岭公园","风景名胜;公园广场;公园","110101","tour","学府路","113.177444","23.435445","113.17201884343767","23.437956926097485","[]","广东省","广州市","花都区"
"B00140UEVZ","钟落潭公园","风景名胜;公园广场;公园","110101","tour","蟠龙路1号","113.407943","23.384137","113.40240193311537","23.38655390756426","[]","广东省","广州市","白云区"
"B0GDLNF61T","新世纪公园","风景名胜;公园广场;公园","110101","tour","狮岭镇西群西群8号新世纪公园","113.167702","23.462718","113.16225673382071","23.465208810300332","[]","广东省","广州市","花都区"
"B0FFKAVWG5","铜鼓坑公园","风景名胜;公园广场;公园","110101","tour","洛场东街与洛场街交叉路口往东北约180米","113.284648","23.444516","113.27927611799915","23.44708794445092","[]","广东省","广州市","花都区"
"B0FFHIYG9Y","消防公园","风景名胜;公园广场;公园","110101","tour","三华西元大街三华工业区","113.196881","23.387476","113.19149369450113","23.390029735506122","[]","广东省","广州市","花都区"
"B0FFL9BBEP","狮岭公园","风景名胜;公园广场;公园","110101","tour","狮岭镇新联路","113.158395","23.457934","113.15293302257176","23.460407902799016","[]","广东省","广州市","花都区"
"B00141R95B","宝田园","风景名胜;公园广场;公园","110101","tour","大松园一巷11号","113.230340","23.392458","113.22499260555465","23.395052188986806","18202001514","广东省","广州市","花都区"
"B00140UEU9","蚌湖公园","风景名胜;公园广场;公园","110101","tour","江人路蚌湖段","113.260506","23.298592","113.25516731127968","23.301211993353","[]","广东省","广州市","白云区"
"B0FFK7JKUR","狮子山公园","风景名胜;公园广场;公园","110101","tour","平步大道雅宝新城后山(近雅宝新城)","113.178686","23.435743","113.17326313915845","23.438257224968623","[]","广东省","广州市","花都区"
"B0FFL6QCSC","花山镇平山村消防公园","风景名胜;公园广场;水族馆","110104","tour","东村路","113.272498","23.424780","113.26714179341593","23.42736682386858","[]","广东省","广州市","花都区"
"B00141JAZ8","石马桃花公园","风景名胜;公园广场;公园","110101","tour","马岗岭街67号","113.256442","23.267258","113.25110720901256","23.269888369293618","[]","广东省","广州市","白云区"
"B0FFF9QWKV","文化公园","风景名胜;公园广场;公园","110101","tour","新村三巷17附近","113.160573","23.409402","113.15511826808876","23.411885631168314","[]","广东省","广州市","花都区"
"B0IAT90O7N","新庄村文化广场","风景名胜;公园广场;城市广场","110105","tour","狮岭镇新庄村文化街7号","113.233005","23.478667","113.22765339391869","23.481253009660684","[]","广东省","广州市","花都区"
"B0FFIY7S5I","岐山公园","风景名胜;公园广场;公园","110101","tour","秀全街道南一街9号","113.157869","23.361583","113.15241269206341","23.364070138944435","[]","广东省","广州市","花都区"
"B00141YQRL","风神康体公园","风景名胜;公园广场;公园","110101","tour","花都区汽车城岭东路39号","113.151046","23.367907","113.14557747529541","23.370380770401784","[]","广东省","广州市","花都区"
"B0FFG9JCGA","新华街文体广场","风景名胜;公园广场;城市广场","110105","tour","望亭路15-15正西方向60米","113.183067","23.369413","113.17765676448859","23.371945748157028","[]","广东省","广州市","花都区"
"B0FFL4YY9V","象山公园","风景名胜;公园广场;公园","110101","tour","花东派出所即花东象山公园","113.332417","23.436296","113.32695697254492","23.43878787821843","[]","广东省","广州市","花都区"
"B0FFKH8DF3","侨青公园","风景名胜;公园广场;公园","110101","tour","三好百货","113.242858","23.410874","113.23751469590171","23.413471472924545","[]","广东省","广州市","花都区"
"B0FFGDCLB5","奇葩主题公园","风景名胜;公园广场;公园","110101","tour","山前大道168号","113.034710","23.442145","113.02930154643742","23.44464180065169","[]","广东省","广州市","花都区"
"B0GRCOEWDM","瑞边村4队小公园","风景名胜;公园广场;公园","110101","tour","狮岭镇瑞边村5队良兴经济社16号4队","113.237012","23.488505","113.2316616845672","23.49109268551328","[]","广东省","广州市","花都区"
"B0FFGP2GV7","团结公园(团结南路)","风景名胜;公园广场;公园","110101","tour","团结南路168号正南方向100米","113.181633","23.462051","113.17621380363536","23.464568116789533","[]","广东省","广州市","花都区"
"B00140UEU0","横潭公园","风景名胜;公园广场;公园","110101","tour","滨湖路21号","113.221811","23.374955","113.21645781476218","23.377544931982293","[]","广东省","广州市","花都区"
"B0FFGOFJ5V","旧屋公园","风景名胜;公园广场;公园","110101","tour","新屋经济社新屋二街4号附近","113.168600","23.458550","113.16315669537018","23.461042857501823","[]","广东省","广州市","花都区"
"B0FFFADZK5","花东镇侨文化广场","风景名胜;公园广场;城市广场","110105","tour","花都大道与侨新街交叉口东40米","113.375641","23.420049","113.3701094058766","23.4224741622289","[]","广东省","广州市","花都区"
"B00140UEXS","天马河国际公园","风景名胜;公园广场;公园","110101","tour","荔红北路8号","113.187603","23.376818","113.18220047216737","23.37935759755143","[]","广东省","广州市","花都区"
"B0FFHTQEVQ","梯田油菜花节","风景名胜;公园广场;植物园","110103","tour","王子山路与韩庄路交叉口东北80米","113.280900","23.579777","113.27552382928206","23.582350844168218","[]","广东省","广州市","花都区"
"B00140UFFG","北回归线公园","风景名胜;公园广场;公园","110101","tour","广从南路","113.486591","23.438752","113.48121589946717","23.441304665106884","[]","广东省","广州市","从化区"
"B00140W3KC","龙岗公园","风景名胜;公园广场;公园","110101","tour","钟龙路68号","113.384240","23.394081","113.37870246451192","23.396502319327617","[]","广东省","广州市","白云区"
"B0FFLIH8H2","沙溪源郊野公园","风景名胜;公园广场;公园","110101","tour","沙溪源农场北侧","113.334669","23.653068","113.32918938502915","23.655560579419046","[]","广东省","广州市","从化区"
"B0FFGII7KB","三凤村中心公园","风景名胜;公园广场;公园","110101","tour","花安东路东150米三凤村村务监督委员会附近","113.313540","23.434761","113.30811871347375","23.43728869185258","[]","广东省","广州市","花都区"
"B0FFMCCD55","安居乐公园","风景名胜;公园广场;公园","110101","tour","南航大道南与金狮大道东交叉口西南80米","113.185702","23.465756","113.1802899871054","23.468280302786706","[]","广东省","广州市","花都区"
"B0FFJLURUY","广州今悦体育足球公园","风景名胜;公园广场;公园","110101","tour","狮岭镇芙蓉大道花都花卉之都内南七路","113.208547","23.448913","113.20317317882024","23.45147617565357","15308196015","广东省","广州市","花都区"
"B001423WZA","绿化公园","风景名胜;公园广场;公园","110101","tour","联新路一街与联新北街交叉口南300米","113.301647","23.431490","113.29624866143247","23.434038815413945","[]","广东省","广州市","花都区"
"B0FFHI9H56","小㘵旧村小公园","风景名胜;公园广场;公园","110101","tour","花山镇小布村新东里","113.260275","23.413962","113.25492862229162","23.416557856424248","[]","广东省","广州市","花都区"
"B00140UFHO","五华公园","风景名胜;公园广场;公园","110101","tour","花城北路63-6号","113.208206","23.388807","113.20283579548297","23.391377904178388","[]","广东省","广州市","花都区"
"B0FFG2PGQS","花都儿童公园","风景名胜;公园广场;公园","110101","tour","天东路","113.242587","23.417446","113.23724319940457","23.420042463788075","[]","广东省","广州市","花都区"
"B0FFINGX1U","小布公园","风景名胜;公园广场;公园","110101","tour","106国道与新东里街交叉口东南260米","113.263512","23.411444","113.25816393746447","23.41403874420393","[]","广东省","广州市","花都区"
"B0FFI756QU","公园前路","风景名胜;公园广场;公园","110101","tour","公园前路35-4号附近(花城路地铁站D口步行420米)","113.209858","23.382938","113.20449043803708","23.38551222515879","[]","广东省","广州市","花都区"
"B00140W3T2","夏良中心公园","风景名胜;公园广场;公园","110101","tour","龙归街道夏良路28号","113.306586","23.287265","113.30118832742181","23.289835180291586","[]","广东省","广州市","白云区"
"B0GK4OR5MN","风悦营地河滨公园","风景名胜;公园广场;公园","110101","tour","寮采花田路1号","113.367305","23.410382","113.36178427853898","23.412818456437453","[]","广东省","广州市","白云区"
"B0FFH3LRUM","秀全街市民广场","风景名胜;公园广场;城市广场","110105","tour","花港大道附近","113.160029","23.374559","113.15457567179551","23.377047525380572","[]","广东省","广州市","花都区"
"B0H2S5CJ1P","梅园口袋公园","风景名胜;公园广场;公园","110101","tour","建设路32号花都实验中学西侧","113.209321","23.377944","113.20395305566232","23.380518404445144","[]","广东省","广州市","花都区"
"B0FFL19QQ8","雄伟村文化公园","风景名胜;公园广场;公园","110101","tour","雄伟寮采路与雄伟新庄园路交叉口东南120米","113.359454","23.384135","113.35394679695061","23.38658693828798","[]","广东省","广州市","白云区"
"B0FFH8X81U","新雅街文化广场","风景名胜;公园广场;城市广场","110105","tour","广花五路与空铁大道交叉口南220米","113.223233","23.359991","113.21788216883867","23.362585298969716","[]","广东省","广州市","花都区"
"B00140V12N","聚贤花园","风景名胜;公园广场;公园","110101","tour","聚贤街与建设路交叉口西20米","113.211294","23.372509","113.20592903507597","23.37508709438","[]","广东省","广州市","花都区"
"B0FFL9LV3B","红船公园","风景名胜;公园广场;公园","110101","tour","华西路51号","113.295101","23.346370","113.28971984636026","23.3489438140714","[]","广东省","广州市","白云区"
"B00140UEYI","白象岭公园","风景名胜;公园广场;公园","110101","tour","蚌湖庙企路","113.252649","23.278558","113.24731452144405","23.281185683293863","[]","广东省","广州市","白云区"
"B0H6YXDJCQ","四角围街心公园","风景名胜;公园广场;公园","110101","tour","风神大道与大田一队三街交叉口西南40米","113.130753","23.372443","113.12525516963622","23.374885279722292","[]","广东省","广州市","花都区"
"B0FFLQ3VFC","明星村科普绿化小公园","风景名胜;公园广场;公园","110101","tour","人和镇明星村","113.313242","23.355983","113.30782669376444","23.35852423344955","[]","广东省","广州市","白云区"
"B0HDAAW34R","太成安置区公园","风景名胜;公园广场;公园","110101","tour","成安街","113.270121","23.347570","113.2647722360371","23.350172294780762","[]","广东省","广州市","白云区"
"B0HDMSTIQO","花都香草世界-二门楼广场","风景名胜;公园广场;城市广场","110105","tour","花山镇铁山村路花都香草世界(南侧)","113.260487","23.462614","113.25513721008363","23.465204297004906","020-66609112","广东省","广州市","花都区"
"B0G3DR36N8","双岗公园","风景名胜;公园广场;公园","110101","tour","夏花五路与双岗朝阳东十三巷交叉口西南140米","113.228148","23.326485","113.22280352580356","23.329091184822055","[]","广东省","广州市","白云区"
"B0HGUUGJV0","溪畔公园","风景名胜;公园广场;公园","110101","tour","[]","113.308548","23.338229","113.30314310534312","23.340782585699127","[]","广东省","广州市","白云区"
"B0HK37UVUK","望南党建公园","风景名胜;公园广场;公园","110101","tour","望岗街","113.278441","23.233892","113.27309133062244","23.23651864169574","[]","广东省","广州市","白云区"
"B0FFJWM4OG","凤凰村消防公园","风景名胜;公园广场;公园","110101","tour","铁山河路9号","113.251567","23.414021","113.24622356296811","23.4166188703664","[]","广东省","广州市","花都区"
"B0FFILENGN","横江庄公园仔","风景名胜;公园广场;公园","110101","tour","钟落潭镇湴湖村","113.450365","23.411360","113.44488305405386","23.413822881564272","[]","广东省","广州市","白云区"
"B0H61AORE0","大岭村科普文化广场","风景名胜;公园广场;城市广场","110105","tour","639乡道与龙潭横岭一街交叉口东100米","113.402746","23.638975","113.39718578579092","23.641386352521785","[]","广东省","广州市","从化区"
"B0GU1O0R6Q","夏茅家风文化公园","风景名胜;公园广场;公园","110101","tour","夏茅商业大街与向东大街交叉口东60米","113.256229","23.224111","113.25089719121972","23.226755346262372","[]","广东省","广州市","白云区"
"B0H2DZDRWR","致岭星际广场","风景名胜;公园广场;公园广场","110100","tour","Y717(狮岭大道东)","113.188845","23.447021","113.18343989440946","23.44955264600412","[]","广东省","广州市","花都区"
"B0FFGL1WNN","双和公园","风景名胜;公园广场;公园","110101","tour","双和一街东2号附近","113.306994","23.262174","113.3015972572652","23.26475091205347","[]","广东省","广州市","白云区"
"B0IRCR7YUC","悦禾公园","风景名胜;公园广场;公园","110101","tour","白山白良路与白山禾堂岭一路交叉口南40米","113.409800","23.273460","113.40426741284129","23.275904077873964","[]","广东省","广州市","白云区"
"B0FFGL0N3X","白云中央湿地","风景名胜;公园广场;公园","110101","tour","均禾大道清湖段","113.270088","23.268945","113.26474458105024","23.271567969953622","[]","广东省","广州市","白云区"
"B0FFGIN3XR","平沙公园","风景名胜;公园广场;公园","110101","tour","平沙松园街35号","113.259369","23.249763","113.25403416955042","23.252397920722434","[]","广东省","广州市","白云区"
"B00140W369","蚌湖公园-文化广场","风景名胜;公园广场;城市广场","110105","tour","江人路蚌湖段","113.260852","23.298010","113.25551316876756","23.30063001034321","[]","广东省","广州市","白云区"
"B0GKXHFJ7W","沙田禁毒主题公园","风景名胜;公园广场;公园","110101","tour","良沙三路与沙田路交叉口东北20米","113.486349","23.310955","113.48098178066465","23.313531069060854","[]","广东省","广州市","白云区"
"B0FFIVO1RO","六角亭公园","风景名胜;公园广场;公园","110101","tour","良田龙门街","113.389004","23.353022","113.38346636321428","23.35544805817042","[]","广东省","广州市","白云区"
"B0FFIMW73E","流溪湾自然生态保育区","风景名胜;公园广场;公园","110101","tour","江人一路蚌湖段","113.259051","23.286694","113.25371382772227","23.289317862769362","[]","广东省","广州市","白云区"
"B0FFK7RO8W","马鞍山公园-东广场","风景名胜;公园广场;城市广场","110105","tour","新华镇凤凰北路23-26号马鞍山公园(东北角)","113.239734","23.397073","113.23439086752889","23.399671607054447","[]","广东省","广州市","花都区"
"B0FFFGYVLG","孖祠堂广场","风景名胜;公园广场;城市广场","110105","tour","南村蟠龙西街","113.293691","23.281748","113.288316553913","23.284340504148403","[]","广东省","广州市","白云区"
"B0I32ZJR9D","白沙村第十二经济社党建公园","风景名胜;公园广场;公园","110101","tour","白沙兰花南十一巷15号对面","113.372502","23.339650","113.3669795195626","23.342093388701016","[]","广东省","广州市","白云区"
"B0FFK7J1TM","马鞍山公园-西广场","风景名胜;公园广场;城市广场","110105","tour","新华镇凤凰北路23-26号马鞍山公园(西南角)","113.234712","23.392193","113.22936717177998","23.39479004508473","[]","广东省","广州市","花都区"
"B00141PQV5","文化体育广场","风景名胜;公园广场;城市广场","110105","tour","钟落潭镇长腰岭村","113.425355","23.385893","113.41982830206058","23.38832084499292","[]","广东省","广州市","白云区"
"B0FFM7C43T","水牛埔公园","风景名胜;公园广场;公园","110101","tour","太和镇永兴村瑚琏市场十三队水牛埔公园","113.336180","23.268264","113.33072383558137","23.270784606207318","[]","广东省","广州市","白云区"
"B00140W3T1","夏良高桥公园","风景名胜;公园广场;公园","110101","tour","良溪大街64号(龙归地铁站A口步行420米)","113.304006","23.290316","113.29861295824006","23.292889728209555","[]","广东省","广州市","白云区"
"B0FFH9VKEA","安平公园","风景名胜;公园广场;公园","110101","tour","钟落潭安平村","113.387711","23.367931","113.38217303119063","23.37035473733215","[]","广东省","广州市","白云区"
"B0H64UJBQN","嘉禾街新科党建公园","风景名胜;公园广场;公园","110101","tour","科甲杨苑直街","113.286861","23.253645","113.28149895329165","23.256255442509254","[]","广东省","广州市","白云区"
"B0FFH11QTF","马仔山公园","风景名胜;公园广场;公园","110101","tour","太平镇广从南路779号东南方向170米","113.491458","23.454054","113.4860986752165","23.456619534013278","[]","广东省","广州市","从化区"
"B0FFL8DZ8A","旺发公园","风景名胜;公园广场;公园","110101","tour","旺发大街四巷33号","113.262420","23.257509","113.25708301943341","23.260140195927384","[]","广东省","广州市","白云区"
"B0FFMB3V5Y","田心鹅隆体育公园","风景名胜;公园广场;公园","110101","tour","太和镇大源村田心北路","113.347827","23.251120","113.34234924500537","23.253624625947598","[]","广东省","广州市","白云区"
"B0H1OLU7OT","广州工商学院-文化广场","风景名胜;公园广场;城市广场","110105","tour","许广高速广州工商学院","113.182341","23.440044","113.17692461226244","23.44256455246217","[]","广东省","广州市","花都区"
"B0HRVL2A7K","明星动物乐园-大羚羊","风景名胜;公园广场;动物园","110102","tour","凤凰北路78号融创文旅城广州融创乐园内明星动物乐园","113.242560","23.430690","113.2372152960049","23.433284730738595","[]","广东省","广州市","花都区"
"B0FFLKHELO","上迳口袋公园","风景名胜;公园广场;公园","110101","tour","大源上迳中路","113.360188","23.247020","113.35468907231582","23.249505636163903","[]","广东省","广州市","白云区"
"B0H01LQGSO","学府南苑业主广场","风景名胜;公园广场;城市广场","110105","tour","学府路10号学府南苑业主广场","113.179205","23.423523","113.17378394009853","23.426039704783022","[]","广东省","广州市","花都区"
"B0FFM8BQHT","朝阳村公园","风景名胜;公园广场;公园","110101","tour","石门街","113.208318","23.223975","113.2029591063443","23.226589318802343","[]","广东省","广州市","白云区"
"B0FFL1AGBK","嘉禾小公园(鹤龙二路)","风景名胜;公园广场;公园","110101","tour","5巷10号区嘉禾望岗嘉禾中学嘉禾小公园","113.281038","23.234248","113.27568514090397","23.236871734931412","[]","广东省","广州市","白云区"
"B0H0KDNKZS","治水文化公园","风景名胜;公园广场;公园","110101","tour","均禾大道清湖段","113.275406","23.271699","113.27005719132437","23.274316658094143","[]","广东省","广州市","白云区"
"B0IBGSNUTJ","下李公园","风景名胜;公园广场;公园","110101","tour","清湖南街","113.268500","23.259418","113.26315857900762","23.262045037870585","[]","广东省","广州市","白云区"
"B0GKRZASKR","荷韵党建文化公园","风景名胜;公园广场;公园","110101","tour","垂思街与禄清正街交叉口北120米","113.269091","23.245778","113.26375000573341","23.24840894260681","[]","广东省","广州市","白云区"
"B0HKG5C7DY","花都区市民广场","风景名胜;公园广场;城市广场","110105","tour","三东大道西","113.220813","23.411777","113.21545633602906","23.414359737637604","[]","广东省","广州市","花都区"
"B0FFHWZ9KD","蒲鱼公园","风景名胜;公园广场;公园","110101","tour","蒲鱼街","113.293870","23.303892","113.288493760296","23.306478065244047","[]","广东省","广州市","白云区"
"B0HRV9AKO7","花都儿童公园-入口广场","风景名胜;公园广场;城市广场","110105","tour","大岭头街与平石东路交叉口南360米","113.243402","23.418847","113.23805824894751","23.42144348092535","[]","广东省","广州市","花都区"
"B0FFGM0SYO","湖畔花园广场","风景名胜;公园广场;城市广场","110105","tour","滨湖路36号","113.221365","23.372313","113.21601155919186","23.37490298359807","[]","广东省","广州市","花都区"
"B0FFGRXBTT","培正学院国强广场","风景名胜;公园广场;城市广场","110105","tour","培正大道53号广东培正学院","113.093190","23.411465","113.0876753022944","23.41387968905641","[]","广东省","广州市","花都区"
"B0FFL6LHUV","五七广场","风景名胜;公园广场;城市广场","110105","tour","东边村上溶街与767乡道交叉口西380米","113.209345","23.442032","113.20397273341388","23.444596993462557","[]","广东省","广州市","花都区"
"B0GKV7473S","红船公园赏心园","风景名胜;公园广场;公园","110101","tour","人和镇华西路51号红船公园内(西北角)","113.294898","23.346692","113.28951716170997","23.349266046872323","[]","广东省","广州市","白云区"
"B0HAKHHR6B","流溪河夏湾拿湿地公园","风景名胜;公园广场;公园","110101","tour","海滨大道与夏湾拿大道交叉口东160米","113.502892","23.472051","113.49757164466108","23.474649480981615","[]","广东省","广州市","从化区"
"B0FFLM6TF5","白沙公园","风景名胜;公园广场;公园","110101","tour","白沙育才路与白云白沙路交叉口东80米","113.375756","23.341670","113.37022970990287","23.34410932656722","[]","广东省","广州市","白云区"
"B0FFJXNZNO","前进村消防主题公园","风景名胜;公园广场;水族馆","110104","tour","狮岭镇前进村石西经济社鱼塘北面","113.145171","23.468614","113.1396860863814","23.471064169339243","[]","广东省","广州市","花都区"
"B0HGNALWM2","北回归线山地运动主题公园","风景名胜;公园广场;公园","110101","tour","[]","113.413790","23.445367","113.40824784689188","23.44777748369271","[]","广东省","广州市","花都区"
"B00141IC3Z","友和广场","购物服务;商场;普通商场|风景名胜;公园广场;城市广场","060102|110105","[]","秀全大道39号(花城路地铁站D口步行220米)","113.210348","23.379470","113.20498132461756","23.382045520600784","[]","广东省","广州市","花都区"
"B0FFL0FTZB","五羊广场","风景名胜;公园广场;城市广场","110105","tour","蓝楹街(广州融创文旅城)","113.239052","23.430232","113.23370640188828","23.432825595336823","[]","广东省","广州市","花都区"
"B0FFL82WT1","太阳广场","风景名胜;公园广场;城市广场","110105","tour","凤凰北路广州融创乐园","113.237606","23.430052","113.23225989237778","23.432644992982905","[]","广东省","广州市","花都区"
"B0FFKWSDGD","喷泉广场","风景名胜;公园广场;城市广场","110105","tour","蓝楹街(广州融创文旅城)","113.237842","23.428112","113.23249611468461","23.430705340901024","[]","广东省","广州市","花都区"
"B0FFJWL5YU","联合村消防主题公园","风景名胜;公园广场;水族馆","110104","tour","联合村旧屋经济社鱼塘南面","113.168459","23.458562","113.16301543122016","23.46105459005268","[]","广东省","广州市","花都区"
"B0HRVDU1IM","廉政文化公园","风景名胜;公园广场;公园","110101","tour","钟升横路与河西二街交叉口南20米","113.406815","23.381378","113.40127371110886","23.383795147380983","[]","广东省","广州市","白云区"
"B0FFL93URX","秀水村体育公园","风景名胜;公园广场;公园","110101","tour","G106(鹤龙五路)","113.299459","23.313054","113.29407263907389","23.31562906569284","[]","广东省","广州市","白云区"
"B0H3JK21ZU","迎宾广场(千年商都区)","风景名胜;公园广场;城市广场","110105","tour","花都大道与平步大道东交叉口西北180米","113.236667","23.426850","113.23132072729996","23.42944294597685","[]","广东省","广州市","花都区"
"B0FFK851U5","马洞森林公园","风景名胜;公园广场;公园","110101","tour","马洞马新路与广新路交叉口西460米","113.464082","23.353366","113.458640680393","23.355870742198157","[]","广东省","广州市","白云区"
"B001423X36","飞鹅岭山顶公园","风景名胜;公园广场;公园","110101","tour","车城大道附近","113.143623","23.361682","113.13814306855683","23.36414473084425","[]","广东省","广州市","花都区"
"B0HDR5SLZV","园夏党群文化公园","风景名胜;公园广场;公园","110101","tour","园夏中街45号","113.290300","23.282956","113.28493084331069","23.285552986246124","[]","广东省","广州市","白云区"
"B0IBO5K7D1","矮榕公园","风景名胜;公园广场;公园","110101","tour","炭步镇大坳村","113.139116","23.312981","113.13363285887945","23.315448125758788","[]","广东省","广州市","花都区"
"B0HDYBQ6AM","石头文化广场","风景名胜;公园广场;城市广场","110105","tour","珠宝城大观园路1号花都珠宝小镇石头记矿物园(东北角)","113.161603","23.400813","113.15615072593563","23.403299852550305","020-36865818","广东省","广州市","花都区"
"B0HRV98222","四面佛广场","风景名胜;公园广场;城市广场","110105","tour","平步大道西大观园路5号广州曼古园(东南角)","113.159043","23.401368","113.15358606287789","23.403850051843175","[]","广东省","广州市","花都区"
"B0FFHE5BNF","新村元杰纪念公园","风景名胜;公园广场;公园","110101","tour","上村中街11号附近","113.299400","23.251443","113.29401792446181","23.254035961258896","[]","广东省","广州市","白云区"
"B0FFJVUMTJ","狮岭镇消防主题公园","风景名胜;公园广场;公园","110101","tour","新联路狮山公园(振兴路)","113.159374","23.457369","113.15391381491897","23.45984474134816","[]","广东省","广州市","花都区"
"B0HRVL4DQ8","明星动物乐园-袋鼠园","风景名胜;公园广场;动物园","110102","tour","凤凰北路78号融创文旅城广州融创乐园内明星动物乐园","113.241974","23.430642","113.23662917845427","23.433236569624647","[]","广东省","广州市","花都区"
"B00141K0L2","鸦湖公园","风景名胜;公园广场;公园","110101","tour","江人三路1038号","113.296448","23.324193","113.29106609079543","23.32676996989224","[]","广东省","广州市","白云区"
"B0FFGY57QQ","体育公园","风景名胜;公园广场;公园","110101","tour","东平路坤和街北200米","113.327880","23.255276","113.32244170803017","23.257816395609176","[]","广东省","广州市","白云区"
"B0FFMHY700","天马广场","风景名胜;公园广场;城市广场","110105","tour","荔红中路辅路与风神大道交叉口南160米","113.185911","23.377891","113.18050536077551","23.380427338473893","[]","广东省","广州市","花都区"
"B0FFF3LHGM","花山镇人民广场","风景名胜;公园广场;城市广场","110105","tour","坪山东路与坪山东闸口街交叉口南180米","113.273226","23.435087","113.26786837638976","23.43767193854844","[]","广东省","广州市","花都区"
"B0FFF44H0N","泉溪公园","风景名胜;公园广场;公园","110101","tour","泉溪南西街","113.226981","23.294650","113.22163778312903","23.29726353110655","[]","广东省","广州市","白云区"
"B0FFFAIKWG","头陂公园","风景名胜;公园广场;公园","110101","tour","S115与头陂赤边路交叉路口西北侧","113.401297","23.303510","113.39575999202896","23.305944311666604","[]","广东省","广州市","白云区"
"B0FFKDJ6FG","白云禁毒主题公园(暂停开放)","风景名胜;公园广场;公园","110101","tour","白云大道北1298号","113.301090","23.223702","113.2957067986181","23.226301381780033","[]","广东省","广州市","白云区"
"B0FFL1BBL1","清风文化广场","风景名胜;公园广场;城市广场","110105","tour","岭东路与东风康体街交叉口东80米","113.154791","23.375973","113.14932830066688","23.37845177510275","[]","广东省","广州市","花都区"
"B00141WT9J","乌溪村文化体育公园","风景名胜;公园广场;公园","110101","tour","竹料镇乌溪村","113.356418","23.342207","113.35091868447233","23.34467219861144","[]","广东省","广州市","白云区"
"B0FFM51YZ7","汉塘党群文化广场","风景名胜;公园广场;城市广场","110105","tour","汉塘榕荫街与汉塘云岗街交叉口西北80米","113.332226","23.379814","113.32677024572354","23.38231470624968","[]","广东省","广州市","白云区"
"B00141PT11","平沙村文化广场","风景名胜;公园广场;城市广场","110105","tour","平沙松园街35号","113.259385","23.248890","113.25405022079349","23.251525194078763","[]","广东省","广州市","白云区"
"B0FFL0N7OP","天籁广场","风景名胜;公园广场;城市广场","110105","tour","人和镇凤和社区聚成东街二巷3号(地铁三号线北延段高增站D出口)广州翼·空港文旅小镇","113.293804","23.354547","113.28842442772601","23.35712096161287","[]","广东省","广州市","白云区"
"B0FFF5Y6EW","东海堂公园","风景名胜;公园广场;公园","110101","tour","朝亮北路徐屋","113.373327","23.307503","113.36780577203247","23.309953386916106","[]","广东省","广州市","白云区"
"B0FFFAICSU","荔香公园","风景名胜;公园广场;公园","110101","tour","太平镇高技术产业园社区工业大道10号","113.499789","23.444585","113.49445956205486","23.447176525301344","[]","广东省","广州市","从化区"
"B0FFKYKE1S","岑境村文化广场","风景名胜;公园广场;城市广场","110105","tour","新雅街道","113.222345","23.351635","113.21699390558562","23.354230198968455","[]","广东省","广州市","花都区"
"B00141X16C","大罗村公园","风景名胜;公园广场;公园","110101","tour","大罗路150号","113.357102","23.333689","113.35160212548367","23.336155084381687","[]","广东省","广州市","白云区"
"B0FFIH9OTZ","飞鹅岭山顶公园-主入口广场","风景名胜;公园广场;城市广场","110105","tour","新华街道马溪车城大道风神高尔夫球会","113.143919","23.361657","113.13843951852832","23.36412020516258","[]","广东省","广州市","花都区"
"B00141PT7O","塘贝公园","风景名胜;公园广场;公园","110101","tour","塘贝西路120号","113.233779","23.300318","113.2284399016564","23.30293486382037","[]","广东省","广州市","白云区"
"B00140UEXO","广州市长腰岭广场","风景名胜;公园广场;城市广场","110105","tour","广从八路775号","113.429236","23.383519","113.42371476044677","23.38595162433557","[]","广东省","广州市","白云区"
"B00141WS5H","正域公园","风景名胜;公园广场;公园","110101","tour","福龙路85号颐福园(东南角)","113.404653","23.384622","113.39911087086776","23.387038226961014","[]","广东省","广州市","白云区"
"B00141PT2G","柏塘一社公园","风景名胜;公园广场;公园","110101","tour","柏塘一路9附近","113.306614","23.299078","113.30121547098392","23.30164484082436","[]","广东省","广州市","白云区"
"B00141J9TG","永兴公园","风景名胜;公园广场;公园","110101","tour","龙兴中路132号附近","113.329350","23.264551","113.32390804695208","23.26708571037234","[]","广东省","广州市","白云区"
"B0I1FCMPM4","飞盘公园","风景名胜;公园广场;公园","110101","tour","广从公路与健康大道交汇处","113.397792","23.373634","113.39225020384245","23.376052554771164","[]","广东省","广州市","白云区"
"B0FFFPQF5J","白云联边文体公园","风景名胜;公园广场;水族馆","110104","tour","启德路5号","113.289192","23.229313","113.28382816112973","23.231928311641177","[]","广东省","广州市","白云区"
"B0FFLOCUIQ","长沙埔村文化广场","风景名胜;公园广场;城市广场","110105","tour","长沙布新春街西侧","113.413761","23.391434","113.40822257234444","23.39385187309677","[]","广东省","广州市","白云区"
"B0FFHP5WOX","桃花园","风景名胜;公园广场;公园","110101","tour","均禾大道清湖段","113.271007","23.264232","113.26566307268476","23.26685569819145","[]","广东省","广州市","白云区"
"B0G399SQKF","登塘文化广场","风景名胜;公园广场;城市广场","110105","tour","钟落潭镇城市便捷酒店登塘文化广场","113.407202","23.383990","113.4016606645906","23.386406757922728","[]","广东省","广州市","白云区"
"B00141PT3O","南岭公园","风景名胜;公园广场;公园","110101","tour","南岭中路","113.297015","23.272335","113.29163564559144","23.274925265344493","[]","广东省","广州市","白云区"
"B00140UG3E","大岗公园","风景名胜;公园广场;公园","110101","tour","兴业路大岗公园","113.411245","22.803105","113.4057453544539","22.805735208480225","020-84996032","广东省","广州市","南沙区"
"B00140UFS5","潭洲公园","风景名胜;公园广场;公园","110101","tour","大岗镇潭州埠边坊29号","113.388140","22.781561","113.38264195780317","22.784201043400802","[]","广东省","广州市","南沙区"
"B0FFLOC9GD","星海公园","风景名胜;公园广场;公园","110101","tour","榄核镇湴湄幼儿园","113.322317","22.861858","113.31691677252938","22.864567080162978","[]","广东省","广州市","南沙区"
"B00141J3K0","黄阁镇体育公园","风景名胜;公园广场;公园","110101","tour","黄阁大道南","113.514797","22.823389","113.50956168587994","22.826238953258954","[]","广东省","广州市","南沙区"
"B00140UE9W","东井公园","风景名胜;公园广场;公园","110101","tour","东井大街49号","113.584026","22.764269","113.57896420707603","22.767275554123653","[]","广东省","广州市","南沙区"
"B0FFLMJ73Q","源昌公园","风景名胜;公园广场;公园","110101","tour","新广三路东北侧","113.526088","22.720920","113.52089725530834","22.72383545558841","[]","广东省","广州市","南沙区"
"B0I63AWM4N","南沙明珠农业公园","风景名胜;公园广场;公园","110101","tour","凤凰大道两侧","113.527169","22.731943","113.5219810316646","22.734858263856896","[]","广东省","广州市","南沙区"
"B0FFG4PQKA","荷塘公园","风景名胜;公园广场;公园","110101","tour","九王庙大道与蒲洲大道交叉口西北60米","113.592142","22.772848","113.58708656626072","22.775855288769314","[]","广东省","广州市","南沙区"
"B0014244TR","九王庙社区综合服务中心休闲公园","风景名胜;公园广场;水族馆","110104","tour","蒲洲大道与九王庙大道交叉口南40米","113.592724","22.772274","113.58766898000428","22.775281615345566","[]","广东省","广州市","南沙区"
"B0IUOM8N86","廉洁文化主题公园","风景名胜;公园广场;公园","110101","tour","蝴蝶洲公园旁","113.563534","22.795877","113.55843898798558","22.798851010145412","[]","广东省","广州市","南沙区"
"B0FFGXJ99A","上湾小区体育公园","风景名胜;公园广场;公园","110101","tour","港前大道北30号","113.586903","22.801668","113.58184159324354","22.804663557275454","020-39392016","广东省","广州市","南沙区"
"B00141KN0F","小虎岛","风景名胜;公园广场;公园","110101","tour","黄阁大道北附近","113.535279","22.840505","113.5301092850557","22.843404851659407","[]","广东省","广州市","南沙区"
"B0HGNUNNV7","金洲山公园","风景名胜;公园广场;公园","110101","tour","环市大道中与金岭一横路交叉口东南140米","113.536589","22.795907","113.53142614241247","22.79882633578393","[]","广东省","广州市","南沙区"
"B0I21UO48Y","寻山口袋公园(建设中)","风景名胜;公园广场;公园","110101","tour","海力一街与海力三街交叉口西南300米","113.573553","22.797627","113.56847553386604","22.80061346175491","[]","广东省","广州市","南沙区"
"B0H6L7G2YD","绿轴公园","风景名胜;公园广场;公园","110101","tour","丰泽西路","113.520630","22.799926","113.51541604563384","22.802801217526532","[]","广东省","广州市","南沙区"
"B0I21ALLJ7","悦溪口袋公园","风景名胜;公园广场;公园","110101","tour","黄阁凤凰大道与黄阁南路交汇处西北方向","113.520630","22.787647","113.51541685355815","22.7905264578936","[]","广东省","广州市","南沙区"
"B0FFGLWKJP","119消防主题公园","风景名胜;公园广场;公园","110101","tour","进港大道蝴蝶洲公园(东北角)","113.565990","22.797564","113.56089962325376","22.80054102309504","[]","广东省","广州市","南沙区"
"B0I21UQVEK","潜游口袋公园(建设中)","风景名胜;公园广场;公园","110101","tour","金隆路与高速桥底交汇处(飞沙角地铁站A口步行170米)","113.539450","22.780238","113.53429658467422","22.7831696520475","[]","广东省","广州市","南沙区"
"B00141KMXT","蝴蝶洲公园","风景名胜;公园广场;公园","110101","tour","南沙街道进港大道320号附近","113.565049","22.797066","113.55995686896081","22.80004184735126","[]","广东省","广州市","南沙区"
"B0I21UQVEM","碧潭口袋公园(建设中)","风景名胜;公园广场;公园","110101","tour","进港大道与珠电路交叉口西北40米","113.554092","22.799644","113.54897610814047","22.802600564424125","[]","广东省","广州市","南沙区"
"B0G295OW82","黄阁镇凤凰社区法治公园","风景名胜;公园广场;公园","110101","tour","黄阁镇凤凰社区","113.521115","22.792559","113.51590315437959","22.7954381527692","[]","广东省","广州市","南沙区"
"B0G2M4U7ES","黄阁镇黄阁社区法治公园","风景名胜;公园广场;公园","110101","tour","S257(凤凰大道)","113.525993","22.813588","113.52079586711565","22.816473346797785","[]","广东省","广州市","南沙区"
"B0I21UQVEL","浅滩口袋公园(建设中)","风景名胜;公园广场;公园","110101","tour","凤凰大道与凯吉街交叉口东北60米","113.525836","22.797346","113.52063942354889","22.800236671895664","[]","广东省","广州市","南沙区"
"B0I21APZBD","浅滩口袋公园","风景名胜;公园广场;公园","110101","tour","凤凰大道东侧","113.525838","22.797453","113.52064142302963","22.8003436401269","[]","广东省","广州市","南沙区"
"B0FFF54QRU","南沙儿童公园","风景名胜;公园广场;公园","110101","tour","海滨路","113.541000","22.817727","113.53584858928292","22.820649236139758","[]","广东省","广州市","南沙区"
"B0FFJQWD3G","二涌公园","风景名胜;公园广场;公园","110101","tour","南江三路与美德三路交叉口西260米","113.525709","22.723573","113.52051684920507","22.726486670888825","[]","广东省","广州市","南沙区"
"B0G24KBW6Z","黄阁镇新海村法治公园","风景名胜;公园广场;公园","110101","tour","留新路与新湾四一路交叉口东北120米","113.517674","22.861762","113.5124459871974","22.864605744656654","[]","广东省","广州市","南沙区"
"B00141PT0O","九王庙公园","风景名胜;公园广场;公园","110101","tour","南沙街道凤凰大道1号","113.592068","22.771643","113.5870125951643","22.77465066484199","[]","广东省","广州市","南沙区"
"B0FFGLWMTP","东里村中心公园","风景名胜;公园广场;公园","110101","tour","麒岗路1-1号附近","113.513636","22.827418","113.50839642290501","22.830263060430816","[]","广东省","广州市","南沙区"
"B0G2T199K9","南沙广场","风景名胜;公园广场;城市广场","110105","tour","南沙街道珠电路富佳东街七天酒店广州南沙广场","113.554893","22.801134","113.54977890390913","22.80409154723667","[]","广东省","广州市","南沙区"
"B0HRVR0HH5","中国·南沙湿地·香云纱非遗文化广场","风景名胜;公园广场;城市广场","110105","tour","万顷沙镇新垦十八涌南沙湿地·寻梦园","113.636319","22.595769","113.63126255050051","22.59878962970479","[]","广东省","广州市","南沙区"
"B0FFIPQRAL","海洋馆","风景名胜;公园广场;水族馆","110104","tour","港前大道南271号蒲洲花园内(东侧)","113.620327","22.760328","113.6152732223252","22.763329396900563","020-84988264","广东省","广州市","南沙区"
"B0H3RBGDTY","金苑小区休闲广场","风景名胜;公园广场;城市广场","110105","tour","金苑大街与金苑横街交叉口西100米","113.548713","22.794934","113.54358405986083","22.79788147634377","[]","广东省","广州市","南沙区"
"B0FFIAQN3I","南沙美食休闲广场","风景名胜;公园广场;城市广场","110105","tour","黄阁南路环市大道西海宁大街110号","113.528770","22.785980","113.52358362472673","22.788882538580886","020-39052881","广东省","广州市","南沙区"
"B0I3TXMZ7H","广州南沙区南沙广场南沙","风景名胜;公园广场;城市广场","110105","tour","富佳东街与富佳南街交叉口东北40米","113.554893","22.801134","113.54977890390913","22.80409154723667","[]","广东省","广州市","南沙区"
"B0H3DSR7XV","南沙凤凰湖公园-东广场","风景名胜;公园广场;城市广场","110105","tour","凤凰大道南沙凤凰湖公园(东北角)","113.524386","22.793951","113.51918490588147","22.79683884793585","[]","广东省","广州市","南沙区"
"B0H3DSPW28","南沙凤凰湖公园-南广场","风景名胜;公园广场;城市广场","110105","tour","凤凰大道南沙凤凰湖公园(西侧)","113.521585","22.792964","113.5163746976558","22.795844343561505","[]","广东省","广州市","南沙区"
"B0FFFGZUIO","黄阁镇东里村共青团公园","风景名胜;公园广场;公园","110101","tour","麒岗路1-1号附近","113.511286","22.825815","113.50603839584984","22.82865371164967","[]","广东省","广州市","南沙区"
"B0H3DSONC4","南沙凤凰湖公园-北广场","风景名胜;公园广场;城市广场","110105","tour","凤凰大道南沙凤凰湖公园(东北角)","113.524084","22.796847","113.51888172287701","22.799733005387413","[]","广东省","广州市","南沙区"
"B0FFFSCIEK","万顷沙休闲公园","风景名胜;公园广场;城市广场","110105","tour","新兴路56附近","113.551821","22.710920","113.54670537660246","22.71389980615019","[]","广东省","广州市","南沙区"
"B0FFLB7ZN6","南沙自贸区市民广场绿带广场","风景名胜;公园广场;城市广场","110105","tour","凤凰大道与南府路交叉口(蕉门地铁站B口步行400米)","113.524621","22.799289","113.51942032631257","22.802175643870697","[]","广东省","广州市","南沙区"
"B0FFJ05CG2","珠江广场","风景名胜;公园广场;城市广场","110105","tour","新广6路","113.542988","22.700613","113.53784983069804","22.703576655438116","[]","广东省","广州市","南沙区"
"B0FFK618NN","南沙太极公园","风景名胜;公园广场;公园广场","110100","tour","海滨路与市南大道交叉口西南220米","113.538097","22.808533","113.53293778396164","22.81145159955274","[]","广东省","广州市","南沙区"
"B0FFGGX6ZW","南沙湿地公园-集散广场","风景名胜;公园广场;城市广场","110105","tour","万顷沙镇新港大道1号南沙湿地公园内","113.637756","22.594773","113.63269803680512","22.59779169685356","020-39059001","广东省","广州市","南沙区"
"B0I0GCCNZP","广州南沙区南沙广场南沙及周边城市","风景名胜;公园广场;城市广场","110105","tour","富佳东街与富佳南街交叉口东北40米","113.554893","22.801134","113.54977890390913","22.80409154723667","[]","广东省","广州市","南沙区"
"B0FFH99E1O","万顷沙休闲公园-新兴社区广场","风景名胜;公园广场;城市广场","110105","tour","教育路万顷沙休闲公园(西南角)","113.551705","22.710869","113.54658909360296","22.713848589992296","[]","广东省","广州市","南沙区"
"B0FFLFMAKG","海贝馆","风景名胜;公园广场;水族馆","110104","tour","蕉门公园(海滨路西)蕉门河景区南沙儿童公园(东南角)","113.541191","22.817416","113.5360401534716","22.820338797216642","[]","广东省","广州市","南沙区"
"B00141PT62","大涌公园","风景名胜;公园广场;公园","110101","tour","金岭南路35号","113.556431","22.767214","113.55132267285856","22.7701858149495","[]","广东省","广州市","南沙区"
"B0FFG2I55H","南滨水角公园","风景名胜;公园广场;公园","110101","tour","蕉西路","113.523697","22.776827","113.51849476365729","22.779718729062814","13631313131","广东省","广州市","南沙区"
"B0FFF2KSYM","鹿颈村文化广场","风景名胜;公园广场;城市广场","110105","tour","鹿颈路29号","113.600759","22.757962","113.59570849735948","22.76097458942328","[]","广东省","广州市","南沙区"
"B0G3APAEN7","南沙体育公园","风景名胜;公园广场;公园","110101","tour","黄阁大道南与黄阁金融街交叉口西南140米","113.514198","22.823969","113.50896058733825","22.826816984256656","[]","广东省","广州市","南沙区"
"B0FFHK50DI","南沙市民广场","风景名胜;公园广场;城市广场","110105","tour","蕉门河双桥东西岸(蕉门地铁站B口步行390米)","113.527715","22.798234","113.52252444279495","22.80112948240065","[]","广东省","广州市","南沙区"
"B0FFGZUSN5","南沙古格境界亲子广场","购物服务;商场;普通商场|购物服务;商场;购物中心|风景名胜;公园广场;城市广场|购物服务;特色商业街;特色商业街","060102|060101|110105|061000","[]","黄阁镇市南公路290号","113.526682","22.812566","113.52148716962272","22.815453598690755","18027227036","广东省","广州市","南沙区"
"B0FFF03B6P","芦湾文化广场","风景名胜;公园广场;城市广场","110105","tour","港前大道北西100米","113.589120","22.790375","113.58406122076208","22.793375445778615","[]","广东省","广州市","南沙区"
"B0FFG24NN5","百万葵园-欢乐广场","风景名胜;公园广场;城市广场","110105","tour","万顷沙镇新垦15涌半百万葵园内(北侧)","113.619839","22.630111","113.61479388817536","22.633145533301203","020-83309917","广东省","广州市","南沙区"
"B00140UG85","新塘公园","风景名胜;公园广场;公园","110101","tour","新塘镇新塘大道中","113.618797","23.118499","113.61372071229198","23.121357389455085","[]","广东省","广州市","增城区"
"B00140UFNL","滨江公园","风景名胜;公园广场;公园","110101","tour","新塘镇(近长堤路)","113.619181","23.106415","113.61410530937792","23.109278012564914","[]","广东省","广州市","增城区"
"B00140BUW8","萝岗香雪公园","风景名胜;公园广场;公园","110101","tour","萝岗镇萝峰路(萝峰寺对面)","113.527068","23.182785","113.5218499206193","23.18552191039297","[]","广东省","广州市","黄埔区"
"B00140UDQB","南山公园","风景名胜;公园广场;公园","110101","tour","南岗南园花园大街6号","113.546567","23.089395","113.54141310787027","23.09221708596841","[]","广东省","广州市","黄埔区"
"B00140UO05","沙埔广场(装修中)","风景名胜;公园广场;城市广场","110105","tour","雅瑶大道3号","113.661245","23.159705","113.65611823540355","23.162484892100256","[]","广东省","广州市","增城区"
"B00140UGDF","汇美公园","风景名胜;公园广场;公园","110101","tour","金都大道48号","113.618438","23.133117","113.61336093089406","23.13596978695488","[]","广东省","广州市","增城区"
"B00140AP13","荔湾湖公园","风景名胜;公园广场;公园","110101","tour","龙津西路155号","113.231472","23.121297","113.22614361020503","23.12397452787914","[]","广东省","广州市","荔湾区"
"B00140UFII","城西公园","风景名胜;公园广场;公园","110101","tour","金沙街道横沙社区安宁街38-46号","113.208315","23.160225","113.20296039782072","23.162862548357243","[]","广东省","广州市","白云区"
"B00140NZ33","双桥公园","风景名胜;公园广场;公园","110101","tour","坦尾路1号(坦尾地铁站I口步行160米)","113.218512","23.124039","113.21317236810012","23.126703726313053","[]","广东省","广州市","荔湾区"
"B00140BCPX","醉观公园","风景名胜;公园广场;公园","110101","tour","东漖北路4号","113.231256","23.099363","113.2259289450097","23.102049384930762","020-81589510","广东省","广州市","荔湾区"
"B00141JLEF","海中文化广场","风景名胜;公园广场;公园|风景名胜;公园广场;城市广场","110101|110105","tour","海中四路海中村委对面(海中公园)","113.203103","23.053576","113.19774804773112","23.05624965378703","[]","广东省","广州市","荔湾区"
"B0FFH6MKUP","滨江公园","风景名胜;公园广场;公园","110101","tour","东海北路与西海北路交叉口东北20米","113.217357","23.146951","113.21201456741112","23.149605277112013","[]","广东省","广州市","荔湾区"
"B00140WANP","螺涌公园","风景名胜;公园广场;公园","110101","tour","罗冲围螺涌北路螺涌工业区","113.226900","23.153713","113.22156620901038","23.1563741471588","[]","广东省","广州市","白云区"
"B00141JFX7","大沙河湿地","风景名胜;公园广场;公园|风景名胜;风景名胜;风景名胜","110101|110200","tour","海中北路","113.198007","23.064795","113.19264333590597","23.067455805452934","[]","广东省","广州市","荔湾区"
"B0FFGFB7UB","北山公园","风景名胜;公园广场;公园","110101","tour","金沙洲岛郡山街(浔峰岗地铁站C出口步行340米)","113.204323","23.166523","113.19896227585048","23.169152337885635","[]","广东省","广州市","白云区"
"B0FFM0K1BC","白云滨江公园","风景名胜;公园广场;公园","110101","tour","金沙洲白云儿童公园(环洲三路东)","113.215124","23.159156","113.20977818779158","23.16180288182736","[]","广东省","广州市","白云区"
"B0GUF1FECL","白云区法治文化公园","风景名胜;公园广场;公园","110101","tour","彩滨中路金沙洲滨江公园内白云儿童公园游乐区","113.215167","23.158711","113.20982126845237","23.1613581059663","[]","广东省","广州市","白云区"
"B0FFK2F8OC","北山公园-御龙山山顶公园","风景名胜;公园广场;公园","110101","tour","郡山街与澜溪街交叉口南60米","113.205379","23.166963","113.20001979265608","23.169593740257486","[]","广东省","广州市","白云区"
"B0GUKHBZ36","白云区家风家训主题公园","风景名胜;公园广场;公园","110101","tour","金沙洲彩滨中路","113.214011","23.156378","113.20866404172372","23.159024587250816","[]","广东省","广州市","白云区"
"B0FFMHBE1F","景秀公园","风景名胜;公园广场;公园","110101","tour","沙河街东海北路141号景秀公园","113.222216","23.140212","113.2168790362125","23.142874151749623","[]","广东省","广州市","荔湾区"
"B0FFFVHCXH","莲塘公园","风景名胜;公园广场;公园","110101","tour","西轩大街27号","113.321234","22.971849","113.3158285924324","22.974514536370176","[]","广东省","广州市","番禺区"
"B0FFK7RETQ","祈福千色园","风景名胜;公园广场;公园","110101","tour","钟村镇市广路祈福新村绿怡南路3号3楼附近","113.329543","22.964885","113.32412099545715","22.967537704897797","[]","广东省","广州市","番禺区"
"B00140UEK8","南山公园(雍景山庄西)","风景名胜;公园广场;公园","110101","tour","南双玉村内","113.306126","22.930288","113.3007532970978","22.932998754956287","[]","广东省","广州市","番禺区"
"B00140UE2M","钟二公园","风景名胜;公园广场;公园","110101","tour","市广路与钟汉路交叉路口往南约200米","113.321389","22.975686","113.31598301680678","22.978349592670178","[]","广东省","广州市","番禺区"
"B00140UGD9","南郊公园","风景名胜;公园广场;公园","110101","tour","市桥街","113.365209","22.930527","113.35972411932482","22.933132855588273","[]","广东省","广州市","番禺区"
"B00140V66D","西园","风景名胜;公园广场;公园","110101","tour","市桥解放路(三堂市场对面)","113.358475","22.936223","113.35300004213053","22.938836330910817","13798012686","广东省","广州市","番禺区"
"B0H3SLN8C4","钟村街大禾田农业公园","风景名胜;公园广场;公园","110101","tour","兴业大道西与石都北路交叉口东280米","113.284669","22.980801","113.27932838853877","22.98352231278848","[]","广东省","广州市","番禺区"
"B0FFFQOVWY","仁和公园","风景名胜;公园广场;公园","110101","tour","谢村环村南路106号","113.309413","22.982532","113.30403051058174","22.98521470161958","[]","广东省","广州市","番禺区"
"B0FFHDXNS3","泰安公园","风景名胜;公园广场;公园","110101","tour","头市大街14号","113.311056","22.984453","113.30567018351626","22.98713193949059","[]","广东省","广州市","番禺区"
"B0FFI57F1B","南片公园","风景名胜;公园广场;公园","110101","tour","横江南苑进村大街与横江南二苑大街交叉口北200米","113.323274","22.933698","113.31786698223696","22.93637593543032","[]","广东省","广州市","番禺区"
"B0I3FAOPID","广州足球公园(建设中)","风景名胜;公园广场;公园","110101","tour","汉溪大道东56号(谢村地铁站A口步行480米)","113.295106","22.987692","113.28974905063468","22.990396068778363","[]","广东省","广州市","番禺区"
"B00141JN0J","钟一第三公园","风景名胜;公园广场;公园","110101","tour","钟一村担水涌路22号","113.316877","22.970444","113.31148054375214","22.973118316630497","[]","广东省","广州市","番禺区"
"B00140UG09","钟山公园","风景名胜;公园广场;公园","110101","tour","钟村人民路78号","113.316744","22.974560","113.3113475349814","22.977232794046646","[]","广东省","广州市","番禺区"
"B0FFK7HDPZ","跳舞广场","风景名胜;公园广场;城市广场","110105","tour","横江干坑大街与横江北苑西街交叉口西南60米","113.317888","22.933784","113.31249196620386","22.936472057860573","[]","广东省","广州市","番禺区"
"B0FFL2USS6","老灯岗公园","风景名胜;公园广场;公园","110101","tour","小罗陇颖四街与小罗陇颖五街交叉口西20米","113.342441","22.962936","113.33699316595514","22.965565299056035","[]","广东省","广州市","番禺区"
"B0FFGUXXVE","奥园·金棕榈广场","风景名胜;公园广场;城市广场","110105","tour","钟村南国奥园","113.323208","22.988868","113.31779739996632","22.991522461247758","[]","广东省","广州市","番禺区"
"B0FFIDJPYE","南站B公园","风景名胜;公园广场;公园","110101","tour","韦海路敏捷时空公馆旁","113.272413","22.980089","113.26708682623077","22.98282327881559","[]","广东省","广州市","番禺区"
"B00140UFOM","洛浦公园","风景名胜;公园广场;公园","110101","tour","105国道如意路(近洛溪大桥收费站)","113.303318","23.043703","113.29794290445747","23.0463698298725","[]","广东省","广州市","番禺区"
"B0HAVA8VPX","田心公园","风景名胜;公园广场;公园","110101","tour","石壁街韦涌村","113.263755","22.977424","113.2584359781261","22.980165310758697","[]","广东省","广州市","番禺区"
"B0FFJXM8AI","金山湖文化公园","风景名胜;公园广场;公园|风景名胜;风景名胜;观景点","110101|110209","tour","钟村街道金山大道西金山湖旁","113.338570","22.982504","113.33312847948686","22.98513204010443","[]","广东省","广州市","番禺区"
"B0FFKJO7NR","北片公园","风景名胜;公园广场;公园","110101","tour","麦地后街与横江北苑西街交叉口西北40米","113.318218","22.934739","113.3128212333845","22.937426037831862","[]","广东省","广州市","番禺区"
"B0FFLHQJ14","白泥塘公园","风景名胜;公园广场;公园","110101","tour","沙南路2号","113.349013","22.947542","113.3435537337143","22.95016613723414","[]","广东省","广州市","番禺区"
"B00140UG3B","陈涌公园","风景名胜;公园广场;公园","110101","tour","兴业大道与兴业大道东十横路交叉口西100米","113.368528","22.909125","113.36304000162097","22.911735371843957","[]","广东省","广州市","番禺区"
"B0FFGVDBBF","廉洁文化广场","风景名胜;公园广场;城市广场","110105","tour","市广路富豪山庄商业街2楼附近","113.346371","22.973192","113.34091492506322","22.97580980443807","[]","广东省","广州市","番禺区"
"B00141IE5O","沙湾公园","风景名胜;公园广场;公园","110101","tour","沙湾大道37号","113.345026","22.907035","113.33957695816281","22.90968318728944","[]","广东省","广州市","番禺区"
"B0FFK7HQAJ","张良文化广场","风景名胜;公园广场;城市广场","110105","tour","古西工业街广州市张良环保科技有限公司","113.292459","22.923369","113.28711065946632","22.926104389979024","[]","广东省","广州市","番禺区"
"B00140UEK5","渡头公园","风景名胜;公园广场;公园","110101","tour","渡头村龙福路","113.342891","22.925664","113.33744481192315","22.928308297809128","[]","广东省","广州市","番禺区"
"B0FFF9QAPE","长隆地铁广场","风景名胜;公园广场;城市广场","110105","tour","汉溪大道东299号广州长隆旅游度假区长隆地铁广场","113.329573","22.994647","113.32414892382063","22.997286828271314","[]","广东省","广州市","番禺区"
"B0FFFA35Y1","广州南站西广场","风景名胜;公园广场;城市广场","110105","tour","广州南站地铁站B口步行100米","113.267398","22.98718","113.26207573296688","22.9899149549354","[]","广东省","广州市","番禺区"
"B00141SYQR","西广场","风景名胜;公园广场;城市广场","110105","tour","沙湾镇北村沙湾古镇内(西北角)","113.332097","22.904032","113.32667386764845","22.90670548415284","020-39110661","广东省","广州市","番禺区"
"B0HGZH43MT","西涌公园","风景名胜;公园广场;公园","110101","tour","石壁街大洲村","113.256878","22.980832","113.25156225436864","22.983574571204976","020-39906621","广东省","广州市","番禺区"
"B00140UFSX","龙湾公园","风景名胜;公园广场;公园","110101","tour","龙湾村委会旁","113.295993","22.901570","113.29064033396867","22.90430920226967","[]","广东省","广州市","番禺区"
"B0FFL1324W","大石街法治文化主题公园","风景名胜;公园广场;公园","110101","tour","会江江南路8号","113.294614","23.003981","113.28925677180102","23.006678768174172","[]","广东省","广州市","番禺区"
"B0FFFA6CIB","广州南站东广场(建设中)","风景名胜;公园广场;城市广场","110105","tour","广州南站地铁站I口旁","113.271513","22.990379","113.26618699271039","22.99310957516782","[]","广东省","广州市","番禺区"
"B0FFGVE9B8","隔岗公园","风景名胜;公园广场;公园","110101","tour","隔岗新邨大道七街南侧","113.347517","22.986675","113.34205785686278","22.98928496675594","[]","广东省","广州市","番禺区"
"B0FFH11I4P","丹山公园","风景名胜;公园广场;公园","110101","tour","捷进中路与丹桂园大街交叉口北180米","113.357310","22.951000","113.35183595112629","22.953608879767206","[]","广东省","广州市","番禺区"
"B0FFKGJ6EY","碧桂园彩虹三街公园","风景名胜;公园广场;公园","110101","tour","彩虹居三街与彩虹居八街交叉口东20米","113.286114","22.926110","113.28077502889877","22.928852825154188","[]","广东省","广州市","番禺区"
"B0FFF09VYI","恩山公园","风景名胜;公园广场;公园","110101","tour","谢村环村南路108号","113.308432","22.982090","113.30305143182727","22.984774625757808","[]","广东省","广州市","番禺区"
"B0FFGL2IGR","新村公园","风景名胜;公园广场;公园","110101","tour","沙渡公路3-27号","113.341838","22.920892","113.3363941870352","22.923540221907643","[]","广东省","广州市","番禺区"
"B0HGFX8T52","南龙湾涌湿地公园","风景名胜;公园广场;公园","110101","tour","沙湾镇龙华路龙湾涌湿地公园","113.296063","22.901597","113.29071021456146","22.90433608458681","[]","广东省","广州市","番禺区"
"B0FFHLFOK1","石一公园","风景名胜;公园广场;公园","110101","tour","石壁街石壁一村","113.269722","23.001279","113.26439687619458","23.00400624515596","[]","广东省","广州市","番禺区"
"B0FFGXEZVU","石三公园","风景名胜;公园广场;公园","110101","tour","华佗路附近","113.263862","23.000437","113.25854137340345","23.003168323680107","[]","广东省","广州市","番禺区"
"B0FFGERRX8","孟浦湖公园","风景名胜;公园广场;公园","110101","tour","石中一路26附近","113.307734","23.012199","113.30235274460007","23.014871845792683","[]","广东省","广州市","番禺区"
"B00141KCIU","沙湾文化广场","风景名胜;公园广场;城市广场","110105","tour","中华大道217-221号","113.342696","22.904696","113.33725160777638","22.907349372554766","[]","广东省","广州市","番禺区"
"B00141PT0I","礼村村共青团绿色公园","风景名胜;公园广场;公园","110101","tour","礼村渤海路2号","113.318509","23.013312","113.31310635169758","23.01596477098446","[]","广东省","广州市","番禺区"
"B0FFFR76D0","石壁四村公园","风景名胜;公园广场;公园","110101","tour","石壁四村","113.272002","22.998586","113.2666749842426","23.001312634590946","[]","广东省","广州市","番禺区"
"B00140UFSV","南村公园","风景名胜;公园广场;公园","110101","tour","汇源直街9号","113.338778","22.902631","113.3333414629181","22.90529245503824","[]","广东省","广州市","番禺区"
"B0FFL4BUFJ","榄山村文化体育广场","风景名胜;公园广场;城市广场","110105","tour","中心街榄山村住宅区","113.349595","22.951599","113.34413439027678","22.95422040072577","[]","广东省","广州市","番禺区"
"B00141JNCC","小罗公园","风景名胜;公园广场;公园","110101","tour","小罗村12号","113.344840","22.966619","113.33938728209054","22.96924236726204","[]","广东省","广州市","番禺区"
"B0FFKXSZZK","顺发公园","风景名胜;公园广场;公园","110101","tour","大北路与侨联大街交叉口西北60米","113.365945","22.944172","113.36045814773797","22.946771078508135","[]","广东省","广州市","番禺区"
"B0FFLCEUDW","八广场","风景名胜;公园广场;城市广场","110105","tour","六十二街一巷与庙前直街交叉口北40米","113.348953","22.945066","113.34349401198503","22.947691294249914","[]","广东省","广州市","番禺区"
"B00141SY83","汉溪文化广场","风景名胜;公园广场;城市广场","110105","tour","汉溪村汉溪路74号","113.329551","22.988879","113.32412735873388","22.991521361089482","[]","广东省","广州市","番禺区"
"B0FFGXMJNB","白虎戏水园","风景名胜;公园广场;动物园","110102","tour","大石镇礼村105国道广州长隆野生动物世界内","113.315243","23.002938","113.30984764165859","23.005601328448094","[]","广东省","广州市","番禺区"
"B0GRYUUKOQ","石二东涌新村公园","风景名胜;公园广场;公园","110101","tour","石陈路与莲塘路交叉口西北240米","113.259187","23.007303","113.25386851773428","23.010033421661646","[]","广东省","广州市","番禺区"
"B0FFGXGEN4","长隆水上乐园-正门广场","风景名胜;公园广场;城市广场","110105","tour","汉溪路169号广州长隆水上乐园","113.323892","22.999802","113.31847925748524","23.002450437911733","[]","广东省","广州市","番禺区"
"B0FFFYR4D5","火烈鸟(环园西路)","风景名胜;公园广场;动物园","110102","tour","大石镇礼村105国道广州长隆野生动物世界内","113.319933","22.998327","113.31452846455451","23.000983572718685","[]","广东省","广州市","番禺区"
"B0FFMB5RKP","健身广场","风景名胜;公园广场;城市广场","110105","tour","滴水岩街25号滴水岩森林公园内(东南角)","113.323604","22.902653","113.318198393634","22.905343247203305","020-84733636","广东省","广州市","番禺区"
"B0HAS1B5W0","戏水广场","风景名胜;公园广场;城市广场","110105","tour","彩虹路儿童乐园内","113.365371","22.961807","113.3598837620559","22.964399338909395","020-39997322","广东省","广州市","番禺区"
"B0HDG7PCAF","雕塑广场","风景名胜;公园广场;城市广场","110105","tour","迎星中路广州市番禺儿童公园儿童乐园","113.365782","22.963061","113.36029409336435","22.965652239247476","020-39997322","广东省","广州市","番禺区"
"B0FFG1YPVU","留耕堂广场","风景名胜;公园广场;城市广场","110105","tour","大夫第街与华光路交叉口西北80米","113.333706","22.904376","113.32827956438028","22.907046284999627","020-84736168","广东省","广州市","番禺区"
"B0GDHR2MZR","彩虹喷雾广场(建设中)","风景名胜;公园广场;城市广场","110105","tour","彩虹路儿童乐园内","113.366534","22.959865","113.36104525722128","22.962456591609538","020-39997322","广东省","广州市","番禺区"
"B00140N1RG","永秀公园","风景名胜;公园广场;公园","110101","tour","沙湾镇古坝村","113.295613","22.916201","113.29025999249417","22.91893472910602","[]","广东省","广州市","番禺区"
"B0IUCYK343","西丽公园","风景名胜;公园广场;公园广场","110100","tour","长堤西路207号","113.353717","22.929248","113.34825053595455","22.931871897440153","[]","广东省","广州市","番禺区"
"B0G2B7ANAV","沙溪村小公园","风景名胜;公园广场;公园","110101","tour","丽景园大街与东华路交叉口北100米","113.335614","23.039355","113.33017456924635","23.041964049387985","[]","广东省","广州市","番禺区"
"B00141THEV","南区公园","风景名胜;公园广场;公园","110101","tour","福德路与德贤路交叉口东南","113.358237","22.922122","113.35276338629006","22.92474163012485","[]","广东省","广州市","番禺区"
"B0FFLM1R24","甘岗公园","风景名胜;公园广场;公园","110101","tour","国本街与918乡道交叉口南80米","113.330343","22.872092","113.32492560701779","22.874781749119563","[]","广东省","广州市","南沙区"
"B0FFG9J9P0","东乡广场","风景名胜;公园广场;城市广场","110105","tour","民乐路5号","113.281725","23.043013","113.27638413107825","23.045710942410707","[]","广东省","广州市","番禺区"
"B0FFICY93E","华南新城滨江文化广场","风景名胜;公园广场;城市广场","110105","tour","沿江东路","113.350409","23.026598","113.34494181568759","23.029185693452842","[]","广东省","广州市","番禺区"
"B0HK0RJCRL","晨运广场","风景名胜;公园广场;城市广场","110105","tour","环城中路120号星海公园(西南角)","113.369344","22.941985","113.36385270074038","22.944580558525114","020-84833980","广东省","广州市","番禺区"
"B0HDJHU32P","关帝岗公园-东广场","风景名胜;公园广场;城市广场","110105","tour","大石镇岗东路88号关帝岗公园","113.305771","23.022821","113.30039275090621","23.025492661252994","020-84799177","广东省","广州市","番禺区"
"B0HDHBB2TD","纪念广场","风景名胜;公园广场;城市广场","110105","tour","环城中路120号星海公园","113.370536","22.942947","113.36504311583343","22.945540672235953","020-84833980","广东省","广州市","番禺区"
"B0FFGPZFG8","文阁公园","风景名胜;公园广场;公园","110101","tour","厦滘北路12号","113.321252","23.041991","113.31584182278827","23.044626241983345","[]","广东省","广州市","番禺区"
"B0FFKRTH9H","石壁廉洁法治文化公园","风景名胜;公园广场;公园","110101","tour","石陈路与大斜路交叉口东140米","113.269710","23.003745","113.26438472185242","23.006471188272418","[]","广东省","广州市","番禺区"
"B0G3JR8C21","咏春广场","风景名胜;公园广场;城市广场","110105","tour","沙湾镇紫坭村西安路7号紫泥堂创意园B区","113.285162","22.891599","113.2798266649232","22.894357281004815","020-23889900","广东省","广州市","番禺区"
"B0HDHNCRXM","大象岗森林公园-健身区","风景名胜;公园广场;公园","110101","tour","会江江南路8号","113.294686","23.002958","113.28932872174491","23.005656103007194","[]","广东省","广州市","番禺区"
"B00140UFR8","北峙公园","风景名胜;公园广场;公园","110101","tour","石陈路43号","113.267982","23.003428","113.26265818560057","23.00615554778548","[]","广东省","广州市","番禺区"
"B0HKRAP3UB","锦岗长隆公园(建设中)","风景名胜;公园广场;公园","110101","tour","猛涌公路与猛涌新区二巷交叉口东160米","113.310644","23.013683","113.30525702199692","23.01635005144172","[]","广东省","广州市","番禺区"
"B0FFKQZVZH","长隆大熊猫中心","风景名胜;公园广场;动物园","110102","tour","广州番禺长隆野生动物世界内","113.315690","22.999434","113.31029398103145","23.002098017222398","020-84783333","广东省","广州市","番禺区"
"B0FFI798RM","新城市广场","风景名胜;公园广场;城市广场","110105","tour","群贤路嘉韵居","113.314708","23.018495","113.3093126641614","23.02115259108984","[]","广东省","广州市","番禺区"
"B0FFL923NH","洞味园近南郊中心公园","风景名胜;公园广场;公园","110101","tour","桥南街道桥南街南城路喜盈嘉立思301号洞味园近南郊中心公园","113.361015","22.921339","113.35553701033638","22.92395472723991","[]","广东省","广州市","番禺区"
"B0FFHK4YAS","江陵里公园","风景名胜;公园广场;公园","110101","tour","大巷涌64号沙湾古镇","113.341737","22.908113","113.33629424799179","22.910766718559156","[]","广东省","广州市","番禺区"
"B0FFHIOM7I","沙坑中心公园","风景名胜;公园广场;公园","110101","tour","大巷涌64号沙湾古镇","113.344080","22.911154","113.33863249374895","22.913802189004286","[]","广东省","广州市","番禺区"
"B00140W3MC","共青团公园","风景名胜;公园广场;公园","110101","tour","龙岐运动馆(康盛七街南)","113.350105","22.916539","113.34464583407055","22.919174309191668","[]","广东省","广州市","番禺区"
"B0FFF54QS7","番禺儿童公园","风景名胜;公园广场;公园","110101","tour","迎星中路","113.367276","22.961692","113.36178611134704","22.964281822087987","020-39997322","广东省","广州市","番禺区"
"B0FFL5L7JU","汇景公园","风景名胜;公园广场;公园","110101","tour","桥南路193-195号附近","113.368361","22.921739","113.36287236627832","22.924344339360125","[]","广东省","广州市","番禺区"
"B00141PT3C","江南中心公园","风景名胜;公园广场;公园","110101","tour","南里路63号","113.369387","22.991907","113.36389224721839","22.99448109656213","[]","广东省","广州市","番禺区"
"B0FFM1DRQF","物业小公园","风景名胜;公园广场;公园","110101","tour","星光大道东与番禺大道北交叉口东南140米","113.336464","23.021086","113.33102409094504","23.023701321567938","[]","广东省","广州市","番禺区"
"B0FFK8E5KU","长隆欢乐世界-北门广场","风景名胜;公园广场;城市广场","110105","tour","汉溪大道东299号长隆欢乐世界内","113.332624","23.002387","113.32719315124001","23.00501766958701","[]","广东省","广州市","番禺区"
"B0FFGUXXT0","龙美村村中心文化广场公园","风景名胜;公园广场;公园","110101","tour","龙美大道与清河横街交叉口东南60米","113.370408","22.971935","113.36491330404925","22.974516438086482","[]","广东省","广州市","番禺区"
"B0FFFDO8OI","亚洲象(香江大道)","风景名胜;公园广场;动物园","110102","tour","汉溪大道东299号长隆野生动物世界内(南侧)","113.315582","22.998927","113.31018623199905","23.001591435970663","020-84783333","广东省","广州市","番禺区"
"B0H21C7Z71","西坊大院东门广场","风景名胜;公园广场;城市广场","110105","tour","市桥街环城西路262号","113.357146","22.937770","113.35167312084786","22.94038475728228","[]","广东省","广州市","番禺区"
"B0FFGLPFFM","涌口村公园","风景名胜;公园广场;公园","110101","tour","雅苑街七巷20号附近","113.335174","23.024235","113.32973648467592","23.0268513951248","[]","广东省","广州市","番禺区"
"B0FFKY9LQE","员岗公园","风景名胜;公园广场;公园","110101","tour","顺意坊大道东与顺意坊东路交叉口西60米","113.361661","23.016844","113.35617551866487","23.01941788982394","[]","广东省","广州市","番禺区"
"B0FFMCY6WO","东门广场","风景名胜;公园广场;城市广场","110105","tour","滴水岩街25号","113.325494","22.903119","113.32008447997498","22.905805456647297","020-84733636","广东省","广州市","番禺区"
"B0FFF8PEW6","北联公园","风景名胜;公园广场;公园","110101","tour","新联路84号北联村公园","113.307780","23.026826","113.30239767232175","23.029492449046142","[]","广东省","广州市","番禺区"
"B0FFLJ7REM","鸿基广场","商务住宅;楼宇;商务写字楼|风景名胜;公园广场;城市广场","120201|110105","[]","桥街大北路488号","113.371003","22.952447","113.3655088877357","22.95503606284216","[]","广东省","广州市","番禺区"
"B00141JJXD","汉溪村人口文化公园","风景名胜;公园广场;公园","110101","tour","汉溪村汉溪路","113.329459","22.988826","113.32403555124273","22.99146855956413","[]","广东省","广州市","番禺区"
"B00141PQBG","广州长隆野生动物世界-长颈鹿","风景名胜;公园广场;动物园","110102","tour","汉溪大道东299号长隆野生动物世界内(西侧)","113.311928","23.000740","113.30653937610656","23.003410334715344","020-84783333","广东省","广州市","番禺区"
"B00140UFSF","三善村共青团环保公园","风景名胜;公园广场;公园","110101","tour","福善路2号旁","113.297701","22.892617","113.2923460302327","22.89535722892032","[]","广东省","广州市","番禺区"
"B0FFM7IRFE","广州长隆熊猫酒店-动物展区","风景名胜;公园广场;动物园","110102","tour","长酒大道与长酒北路交叉口东北100米","113.331091","23.005120","113.32566310198122","23.007752406891534","020-84780333","广东省","广州市","番禺区"
"B00141SXV9","大石文化广场","风景名胜;公园广场;城市广场","110105","tour","岗西路与沿江中路交叉口西北50米","113.303190","23.024700","113.2978164176595","23.02737522615482","[]","广东省","广州市","番禺区"
"B0FFHF58BP","罗马广场","风景名胜;公园广场;城市广场","110105","tour","市良路1342号","113.310124","22.902731","113.30474548829385","22.905446208960935","[]","广东省","广州市","番禺区"
"B0FFKMQJPN","长发水族馆","风景名胜;公园广场;水族馆","110104","tour","市桥桥兴大道330号银平路迎星西路13号","113.354682","22.960143","113.34921176934643","22.962752192924434","13760675285","广东省","广州市","番禺区"
"B0FFHMAQCB","健康主题公园","风景名胜;公园广场;公园","110101","tour","福德路南区公园(东北角)","113.358671","22.922640","113.35319664543681","22.925258740407802","[]","广东省","广州市","番禺区"
"B0HGV6LKE7","江边广场","风景名胜;公园广场;城市广场","110105","tour","大平台首层江边广场","113.351724","23.026281","113.34625446786305","23.02886659133456","[]","广东省","广州市","番禺区"
"B0FFGSEHNB","蔷薇园","风景名胜;公园广场;公园","110101","tour","汉溪大道东与汉溪大道东辅路交叉口东南约220米","113.342543","22.999399","113.33709249702724","23.002012404107667","[]","广东省","广州市","番禺区"
"B0FFI2BXSS","繁华中心广场","风景名胜;公园广场;城市广场","110105","tour","易发西街126附近","113.362809","22.941790","113.35732687688667","22.944394482968523","[]","广东省","广州市","番禺区"
"B0G3VGCKW1","时代外滩外围广场","风景名胜;公园广场;城市广场","110105","tour","洛浦街道沙溪大道时代外滩外围广场","113.348560","23.033018","113.34309576944466","23.035606124204943","[]","广东省","广州市","番禺区"
"B00141SY5Q","安宁广场","风景名胜;公园广场;城市广场","110105","tour","大巷涌64号沙湾古镇(东北角)","113.336322","22.903715","113.33089031144961","22.906380611865707","020-39110661","广东省","广州市","番禺区"
"B00141PSN0","观赏植物园","风景名胜;公园广场;植物园","110103","tour","西六路","113.358933","23.039728","113.35345026231575","23.042296132805962","020-39348080","广东省","广州市","番禺区"
"B0G0AKOF58","思源农业公园","风景名胜;公园广场;公园","110101","tour","浦华路与沿沙路交叉口东140米","113.273216","23.034275","113.26788541800109","23.036985207187886","[]","广东省","广州市","番禺区"
"B0FFK7IE1D","七彩多肉植物园","风景名胜;公园广场;植物园","110103","tour","兴南大道与官堂镇东路交叉口北100米","113.358206","23.015342","113.35272610387209","23.01792177420448","[]","广东省","广州市","番禺区"
"B0FFG22822","沙园电器","风景名胜;公园广场;城市广场|购物服务;家电电子卖场;家电电子卖场","110105|060300","tour","市桥街环城东路196号沙园广场1-2层","113.371006","22.938072","113.36551286183992","22.940667167234285","020-84631161","广东省","广州市","番禺区"
"B0FFH0CZGU","广东科学中心-南广场","风景名胜;公园广场;城市广场","110105","tour","小谷围街道广东科学中心","113.362820","23.038488","113.35733127993507","23.04105086628466","020-39348080","广东省","广州市","番禺区"
"B0FFH0CZGQ","广东科学中心-北广场","风景名胜;公园广场;城市广场","110105","tour","小谷围街道广东科学中心","113.363110","23.040102","113.35762073470605","23.042663754853415","020-39348080","广东省","广州市","番禺区"
"B00141PT5M","大维村公园","风景名胜;公园广场;公园","110101","tour","大维大街19号","113.297785","23.016872","113.2924215627248","23.019559356563025","[]","广东省","广州市","番禺区"
"B00141S1NM","水晶宫文化广场","风景名胜;公园广场;城市广场","110105","tour","市桥光明南路水边屋下街7号","113.363310","22.935094","113.35782758186384","22.93770059693941","[]","广东省","广州市","番禺区"
"B00141IDUF","羣园","风景名胜;公园广场;水族馆","110104","tour","海傍路与长堤西路交叉口西南80米","113.362625","22.931819","113.35714383123667","22.934427964060465","[]","广东省","广州市","番禺区"
"B0FFGKUQ0O","南漖商店","风景名胜;公园广场;城市广场|购物服务;便民商店/便利店;便民商店/便利店","110105|060200","tour","东沙街南教村聚龙坊188号","113.245422","23.046069","113.24010358601728","23.048784016763847","[]","广东省","广州市","荔湾区"
