"id","name","type","typeCode","bizType","address","gcj02_lng","gcj02_lat","wgs84_lng","wgs84_lat","tel","provinceName","cityName","adName"
"B00140B8G7","万和百货","购物服务;商场;购物中心","060101","[]","江埔镇","113.596164","23.544795","113.59106018659882","23.547567565310775","020-87977018","广东省","广州市","从化区"
"B00141UDA5","新世纪广场南门2","购物服务;商场;普通商场","060102","[]","东成路68号","113.588915","23.547421","113.5838063336129","23.550191945665503","[]","广东省","广州市","从化区"
"B0FFG8DKK7","摩登广场","购物服务;商场;普通商场","060102","[]","西宁横街14号","113.587840","23.549488","113.58273029068859","23.55225855306241","[]","广东省","广州市","从化区"
"B00140AXVL","新世纪广场","购物服务;商场;购物中心","060101","[]","街口街东成路68号","113.588941","23.547770","113.58383233156937","23.55054096535431","020-87930888;020-87935808","广东省","广州市","从化区"
"B0FFF3UTLO","惠民商业城","购物服务;商场;普通商场","060102","[]","江埔街七星市场","113.600843","23.538804","113.59574130294638","23.5415762992583","[]","广东省","广州市","从化区"
"B0FFK3KVZD","英豪国际集团(海洋广场店)","购物服务;商场;普通商场","060102","[]","河东南路426号","113.601457","23.529215","113.59635609209653","23.53198711759179","[]","广东省","广州市","从化区"
"B00140W3IY","富顺百货","购物服务;商场;普通商场|购物服务;便民商店/便利店;便民商店/便利店","060102|060200","[]","横江大道与横江路交叉口东140米","113.575415","23.584156","113.57028853082215","23.586919351860196","020-87904838","广东省","广州市","从化区"
"B0HBR76Q2R","罗洞工匠小镇工匠客厅","购物服务;商场;商场","060100","[]","江埔街105国道罗洞牌坊侧(原从化区社会福利院)","113.603089","23.525357","113.5979886667988","23.528128795291916","[]","广东省","广州市","从化区"
"B0G2DDMUSI","INTIME皮肤管理日式半永久(海塱横街店)","购物服务;商场;商场","060100","[]","海塱横街欣荣宏大厦4栋6楼(农业银行旁)","113.590500","23.530670","113.58539368396853","23.533441246948797","[]","广东省","广州市","从化区"
"B0H2N1LGOD","商场","购物服务;商场;普通商场","060102","[]","盛景南路与向阳南路一巷交叉口东北140米","113.597852","23.553527","113.59274834099779","23.556299875729422","[]","广东省","广州市","从化区"
"B0HG6CE7MY","小海南区商贸城","购物服务;商场;商场","060100","[]","环市东路与联兴路交叉口北280米","113.603302","23.528988","113.59820145781087","23.53175974780581","[]","广东省","广州市","从化区"
"B0HGJMINQA","购物广场","购物服务;商场;普通商场","060102","[]","观景路东北40米","113.568427","23.512947","113.5632939800312","23.51570026262869","[]","广东省","广州市","从化区"
"B0G3MR2G03","专营手机电池","购物服务;商场;商场","060100","[]","府前路与蓝田东路交叉口北40米","113.587796","23.546108","113.58268647772829","23.548878441271782","[]","广东省","广州市","从化区"
"B0FFL7ASJ3","MEINAIER(都市华庭店)","购物服务;商场;免税品店","060103","[]","城南路蓝度网咖旁","113.585136","23.538688","113.58002449087195","23.541456945512984","[]","广东省","广州市","从化区"
"B0FFKZ9HKD","海宏锦鲤","购物服务;商场;免税品店","060103","[]","赤草村赤草队56-1(赤草地铁站出入口步行150米)","113.560791","23.502116","113.55564383212761","23.50485829944362","13926173698","广东省","广州市","从化区"
"B0FFIVO5WA","欣荣广场","购物服务;商场;普通商场","060102","[]","海塱东路与海塱横街交叉口东北150米","113.589260","23.533024","113.58415257157026","23.535794826794014","020-37937566;020-37937888","广东省","广州市","从化区"
"B0FFL6OFBB","佰佳商场(福和市场店)","购物服务;商场;普通商场","060102","[]","中新镇福和市场2一4号","113.633626","23.360375","113.6285224268039","23.363139137212368","[]","广东省","广州市","增城区"
"B0FFFEQC81","万福源百货","购物服务;商场;普通商场|购物服务;便民商店/便利店;便民商店/便利店","060102|060200","[]","丰盛街24号","113.224421","23.468411","113.21906387951543","23.470991040928716","020-86980908","广东省","广州市","花都区"
"B0FFFAJ271","东福百货","购物服务;商场;普通商场","060102","[]","[]","113.184790","23.469972","113.17937604521727","23.472494322286398","13450443793;13553928948","广东省","广州市","花都区"
"B0FFLJ3K7S","碧华商业广场","购物服务;商场;普通商场","060102","[]","山前旅游大道与南航大道北交叉口东200米","113.195330","23.480686","113.18993377373995","23.48322619828182","[]","广东省","广州市","花都区"
"B0FFK50NVR","益群东福百货超市","购物服务;商场;普通商场|购物服务;超级市场;超市","060102|060400","[]","益和北路益群农贸市场","113.185053","23.469632","113.17963954620798","23.472154827636473","[]","广东省","广州市","花都区"
"B00141JUPG","东福百货广场(旗岭店)","购物服务;商场;普通商场","060102","[]","狮岭镇旗岭村富誉路","113.219614","23.469956","113.2142521593393","23.472531112895645","[]","广东省","广州市","花都区"
"B00141SX9O","阳光广场","购物服务;商场;普通商场","060102","[]","阳光北路55号","113.167080","23.468057","113.16163320893978","23.470546219334498","[]","广东省","广州市","花都区"
"B0FFHA2ERQ","金海时代广场","购物服务;商场;普通商场","060102","[]","合成市场五街与新三社西路交叉口东40米","113.182682","23.454006","113.17726528462673","23.456525765200986","[]","广东省","广州市","花都区"
"B00141JQVR","铂丽百货超市","购物服务;便民商店/便利店;便民商店/便利店|购物服务;商场;商场","060200|060100","[]","狮岭镇盘古北路48号","113.154525","23.477226","113.14905488835021","23.47969148261452","13798095610","广东省","广州市","花都区"
"B0H6ODQZLW","万家好百货(花山店)","购物服务;商场;普通商场","060102","[]","花山镇两龙南街王志杭商住楼首二层","113.275432","23.452136","113.27007093045421","23.45471715296899","020-86848573","广东省","广州市","花都区"
"B0FFH7D10D","益群广场","购物服务;商场;普通商场","060102","[]","狮岭镇金狮大道东88号","113.185085","23.470166","113.1796715677746","23.472688847325774","13926111165;18802091736","广东省","广州市","花都区"
"B0GDLUIWHN","万悦城百货盘古店","购物服务;商场;商场","060100","[]","狮岭镇盘古路105号","113.156538","23.469363","113.15107194423597","23.47183261855406","020-86386339","广东省","广州市","花都区"
"B0FFLKVT4Q","金威商业广场","购物服务;商场;普通商场","060102","[]","宝峰南路金威皮革箱包精品城","113.174441","23.460260","113.16900852380844","23.462763765557376","[]","广东省","广州市","花都区"
"B0FFLJC6OE","万虹商业休闲广场","购物服务;商场;普通商场","060102","[]","南航大道北万虹花园","113.186366","23.468149","113.18095502198986","23.470674325898962","[]","广东省","广州市","花都区"
"B0H6RA80P0","狮岭城市","购物服务;商场;普通商场","060102","[]","金狮大道西与盘古中路交叉口东260米","113.158814","23.468759","113.1533520279525","23.47123279174787","[]","广东省","广州市","花都区"
"B00141PS0R","龙城商业中心","购物服务;商场;商场","060100","[]","启航路","113.650368","22.685539","113.64528822688466","22.68852027490609","[]","广东省","广州市","南沙区"
"B0FFFAIB12","天汇百货(新垦店)","购物服务;商场;普通商场","060102","[]","万顷沙镇新垦繁荣路(新垦综合市场首、二层)","113.606271","22.643400","113.60122865115494","22.646440695073874","[]","广东省","广州市","南沙区"
"B00140VAVO","新垦商贸城","购物服务;商场;普通商场","060102","[]","万顷沙镇长堤西路10号","113.606767","22.644261","113.60172459905124","22.64730134171561","[]","广东省","广州市","南沙区"
"B0FFLJGRRD","君俊晴海岸团购店","购物服务;商场;免税品店","060103","[]","科院路晴海岸","113.590258","22.743815","113.58520311485879","22.74683088807801","[]","广东省","广州市","南沙区"
"B0H3X74IU8","心悦城·邮轮广场(中交·国际邮轮广场店)","购物服务;商场;商场","060100","[]","莲溪拓展路2号(南沙客运港地铁站G口步行490米)","113.609575","22.772134","113.6045241700725","22.775139241600165","[]","广东省","广州市","南沙区"
"B0HKFCY1UO","广州南沙大涌星河COCO Garden商场","购物服务;商场;普通商场","060102","[]","大涌东路(大涌地铁站D口步行270米)","113.557634","22.760736","113.5525288126568","22.763712032165603","[]","广东省","广州市","南沙区"
"B00141PS2Q","天汇百汇(东门)","购物服务;商场;购物中心","060101","[]","珠江东路与珠江中路交叉口西20米","113.546170","22.703987","113.5410402954104","22.70695688542173","[]","广东省","广州市","南沙区"
"B0FFLFGNPE","珠江源昌花园广场","购物服务;商场;商场","060100","[]","珠江街新广三路","113.525786","22.720212","113.52059431995384","22.723126824847853","[]","广东省","广州市","南沙区"
"B0IGGDW26D","源昌花园商业广场","购物服务;商场;普通商场","060102","[]","新广三路与珠江大道交叉口西北320米","113.525656","22.720829","113.5204638563614","22.7237432955389","[]","广东省","广州市","南沙区"
"B0FFK6EKP2","TYGRIN","购物服务;商场;免税品店","060103","[]","祈福家兴二街13号","113.296182","22.959495","113.29082514105677","22.962209564577016","[]","广东省","广州市","番禺区"
"B0FFFY10Y4","雄峰城A3座","购物服务;商场;普通商场","060102","[]","钟村街105国道旁雄峰城","113.301956","22.970424","113.29658831090026","22.97312470055382","[]","广东省","广州市","番禺区"
"B00140UFXW","雄峰城","购物服务;商场;购物中心","060101","[]","钟村镇105国道","113.303484","22.970813","113.29811349767225","22.973510991763835","020-34710888;020-39908999","广东省","广州市","番禺区"
"B00141IEMS","钟福广场","购物服务;商场;购物中心","060101","[]","钟村街钟屏岔道南侧","113.322951","22.967946","113.31754233810436","22.97060995953631","020-23832777","广东省","广州市","番禺区"
"B0FFHRXB2N","7天广场","购物服务;商场;普通商场","060102","[]","105国道钟村市场对面","113.311638","22.976257","113.30625159348713","22.97893842343777","020-31144212","广东省","广州市","番禺区"
"B0FFK83ZLK","众万加百货(钟村店)","购物服务;便民商店/便利店;便民商店/便利店|购物服务;商场;商场","060200|060100","[]","钟村市场解放路87号","113.312170","22.973909","113.30678270461205","22.97659047231358","[]","广东省","广州市","番禺区"
"B0FFIAT802","商场","购物服务;商场;普通商场","060102","[]","钟村解放路钟村永兴隆综合批发市场","113.312858","22.974293","113.30746932012386","22.976973058502107","[]","广东省","广州市","番禺区"
"B00141SF10","金丰时代","购物服务;商场;普通商场|购物服务;专卖店;儿童用品店","060102|061207","[]","嘉胜路17号","113.313516","22.976212","113.3081258865929","22.978890033296416","[]","广东省","广州市","番禺区"
"B0FFHIYXAL","星华荟商业广场","购物服务;商场;普通商场","060102","[]","钟一村钟福广场","113.321319","22.968371","113.3159136529231","22.971037870047567","[]","广东省","广州市","番禺区"
"B0FFFQOF08","存幸购物广场","购物服务;商场;商场","060100","[]","钟一村担水涌路2号1楼","113.317612","22.969275","113.31221413728215","22.971948449462015","[]","广东省","广州市","番禺区"
"B0G2CR8ZE4","金亿里","购物服务;商场;普通商场|商务住宅;住宅区;住宅小区","060102|120302","[]","257省道与诜墩环村东路交叉口西南80米","113.318619","22.977765","113.3132185242695","22.98043291438597","[]","广东省","广州市","番禺区"
"B00141IEMP","天汇百货(钟村店)","购物服务;商场;普通商场|购物服务;超级市场;超市","060102|060400","[]","钟灵北路1号","113.315275","22.978353","113.30988123300776","22.981026881911642","020-34718088","广东省","广州市","番禺区"
"B0FFHMLL6L","祈福·缤纷世界","购物服务;商场;普通商场","060102","[]","市广路(市广路地铁站B口步行490米)","113.332475","22.969307","113.32704669172058","22.971952218932834","[]","广东省","广州市","番禺区"
"B0FFIYHPZV","易和乐购卖场","购物服务;商场;普通商场","060102","[]","社学西路与宏达三街交叉口西南40米","113.312810","22.975153","113.30742135725082","22.977832775749263","[]","广东省","广州市","番禺区"
"B0FFGOFIQG","广路商贸城(钟村商贸城店)","购物服务;商场;普通商场","060102","[]","钟村街商贸城第六排A21号(钟村盛兴五街二横21号)西北方向5米","113.314942","22.981812","113.30954866696605","22.984485005296637","[]","广东省","广州市","番禺区"
"B0FFFPQTJT","皓兴商场","购物服务;商场;商场","060100","[]","沙头街小罗村工业一街16号B","113.345366","22.966616","113.3399122777159","22.969238424018428","020-34907898","广东省","广州市","番禺区"
"B0G0HNG0JF","遇见魔法(奥园·小资天堂店)","购物服务;商场;免税品店","060103","[]","小资四街奥园小资天堂","113.322033","22.983190","113.31662519250565","22.985849140491222","[]","广东省","广州市","番禺区"
"B00141PRGX","正茂商场","购物服务;商场;商场|购物服务;便民商店/便利店;便民商店/便利店","060100|060200","[]","沙头街大平村朝阳下街32号、34号","113.339525","22.945889","113.33408405590257","22.948530953178924","13512766899","广东省","广州市","番禺区"
"B00141IMIK","石碁城市广场","购物服务;商场;购物中心","060101","[]","莲塘路2号","113.442294","22.954762","113.43682523565089","22.95736594515003","020-39960111","广东省","广州市","番禺区"
"B0FFK11L52","万人乐(莲塘路)","购物服务;商场;普通商场","060102","[]","石基城市广场七座二层","113.443343","22.955253","113.43787639143011","22.95785859697414","020-84556966","广东省","广州市","番禺区"
"B00140W4GS","百越商场","购物服务;商场;普通商场","060102","[]","石碁镇龙基南路47-49号","113.436075","22.954473","113.43059429229635","22.95706694134621","020-84857309","广东省","广州市","番禺区"
"B0G0V4J7QE","石基富怡三区社区团购(富怡小区三区店)","购物服务;商场;免税品店","060103","[]","石基富怡三区二座101号","113.439214","22.958871","113.43373881173488","22.961467975945144","[]","广东省","广州市","番禺区"
"B0GDCC6FEQ","万佳汇购物广场(石基店)","购物服务;商场;购物中心","060101","[]","龙涌东路10号","113.435565","22.955672","113.43008330851225","22.95826466929123","020-39183405","广东省","广州市","番禺区"
"B0FFGBEC2E","爱地球(广州服务中心)","购物服务;商场;免税品店","060103","[]","石基镇龙基北路14号","113.436869","22.957252","113.43138953208118","22.959845958429497","13580371456;13760796677","广东省","广州市","番禺区"
"B0FFF09F19","华宇广场","购物服务;商场;商场","060100","[]","桥边路与龙涌东路交叉口,50米","113.435260","22.956134","113.42977774332527","22.9587260226393","[]","广东省","广州市","番禺区"
"B0FFK7RVA0","寿母广场","购物服务;商场;普通商场","060102","[]","石碁村路与庚辉坊北街交叉口南40米","113.443009","22.950479","113.43754201338716","22.953086036734494","[]","广东省","广州市","番禺区"
"B0FFG4BRU4","成达商业中心","购物服务;商场;普通商场","060102","[]","石基镇市莲路石基村段2号","113.437348","22.950169","113.43186988977388","22.952766721492477","[]","广东省","广州市","番禺区"
"B00141JRCL","万佳汇(沙涌店)","购物服务;商场;普通商场","060102","[]","石基镇沙涌村公园","113.427568","22.953733","113.42207391056245","22.95631603348366","[]","广东省","广州市","番禺区"
"B0FFH2WMF0","南珑商业中心","购物服务;商场;商场","060100","[]","市莲路大龙段31号","113.430758","22.953332","113.42526856756484","22.95591904803362","[]","广东省","广州市","番禺区"
"B0FFFS7J7X","海鸥综合楼","购物服务;商场;普通商场|商务住宅;楼宇;商务写字楼","060102|120201","[]","石基镇前锋北路21号","113.443073","22.942374","113.43760669786789","22.944984597719827","[]","广东省","广州市","番禺区"
"B0G3MDWOED","万侨商业广场","购物服务;商场;普通商场","060102","[]","市莲路沙涌村","113.428366","22.953814","113.4228730167545","22.956397918648907","18022388733","广东省","广州市","番禺区"
"B0G3A9HARF","沙涌荟","购物服务;商场;普通商场","060102","[]","大龙街市莲路沙涌路段107号","113.428070","22.953661","113.42257661117961","22.95624463954503","[]","广东省","广州市","番禺区"
"B00141PRJT","百兴隆商场(沙涌店)","购物服务;商场;普通商场","060102","[]","大龙街沙涌村新中一区保境路10号","113.426771","22.954750","113.4212757620986","22.957331708582497","[]","广东省","广州市","番禺区"
"B0IA15ULAG","中创商业美食广场","购物服务;商场;普通商场","060102","[]","永善村路与义里下街交叉口东南80米","113.460899","22.956363","113.4554756400474","22.95900524440708","[]","广东省","广州市","番禺区"
"B0FFHM4SQA","捷恒广场","购物服务;商场;普通商场","060102","[]","市莲路官涌村路段24号","113.457897","22.953329","113.4524656058402","22.95596545307278","4008880858","广东省","广州市","番禺区"
"B00140W7CJ","信业尚东汇","购物服务;商场;普通商场","060102","[]","大龙街城区大道283号","113.406533","22.937260","113.40102215680365","22.93983605904937","[]","广东省","广州市","番禺区"
"B0FFILWI5N","亚运城广场","购物服务;商场;购物中心","060101","[]","石楼镇康体路43号","113.476557","22.941816","113.47118208824284","22.944505365564435","020-84869988;020-84890333","广东省","广州市","番禺区"
"B0FFF2BMYR","恒发百货","购物服务;商场;普通商场","060102","[]","石基镇前锋路","113.448552","22.925622","113.44309897334719","22.92825002248948","[]","广东省","广州市","番禺区"
"B0IA3OER62","吉山商业中心(吉山东市场店)","购物服务;商场;商场","060100","[]","吉山新路街91号吉山东市场","113.433384","23.126984","113.42788689181333","23.129500735890527","[]","广东省","广州市","天河区"
"B0FFM6QUQ8","极配者","购物服务;商场;免税品店","060103","[]","吉山新路街自编24号2栋二单元二楼B229","113.432384","23.125321","113.42688537330407","23.12783704200052","18566201652","广东省","广州市","天河区"
"B0FFM68JVM","吉华购物广场","购物服务;商场;购物中心","060101","[]","吉山新路衔1号","113.427732","23.127549","113.42222625962552","23.130058357777894","[]","广东省","广州市","天河区"
"B0HRFZ1W9T","八号商业广场","购物服务;商场;普通商场","060102","[]","灵山东路8号","113.425167","23.126981","113.41965791227895","23.12948780251083","[]","广东省","广州市","天河区"
"B0FFK4N7JA","2号广场","购物服务;商场;普通商场","060102","[]","珠村灵山东路2号","113.423716","23.127074","113.41820513422756","23.12957931903025","[]","广东省","广州市","天河区"
"B0FFFR7N8D","广州M+Park漫广场","购物服务;商场;购物中心|购物服务;商场;普通商场","060101|060102","[]","东圃镇中山大道中1242号","113.424651","23.112200","113.41914228379851","23.11471229046018","020-32236888;020-82109666","广东省","广州市","天河区"
"B0FFFGZU5J","丰乐广场","购物服务;商场;普通商场","060102","[]","丰乐北路633号(黄埔体育馆对面)","113.453075","23.114462","113.44762010100389","23.117018950379613","[]","广东省","广州市","黄埔区"
"B0FFM4MLB2","优托邦","购物服务;商场;普通商场","060102","[]","奥体南路12号","113.415496","23.130994","113.40997681333684","23.133491331360094","[]","广东省","广州市","天河区"
"B0FFHXQRVK","汇珠商业广场","购物服务;商场;普通商场","060102","[]","BRT珠村站黄村大道","113.417495","23.120472","113.4119781817039","23.122974861206952","13427501973;13824474870","广东省","广州市","天河区"
"B0H6G5ZNQS","十漫广场","购物服务;商场;购物中心","060101","[]","中山大道中与珠村东环路交叉口南40米","113.425074","23.113923","113.41956569095203","23.11643501409753","020-82109666","广东省","广州市","天河区"
"B00140W8IE","优托邦购物中心(奥体中心店)","购物服务;商场;购物中心","060101","[]","奥体南路12号","113.415416","23.131080","113.40989674573466","23.13357724940854","020-82168098;020-82169152;020-82175253","广东省","广州市","天河区"
"B0FFG98883","民信优购(珠村店)","购物服务;商场;普通商场","060102","[]","东桥大道南22号珠村市场2层","113.423261","23.117773","113.41775023812792","23.12028165691346","020-32239001","广东省","广州市","天河区"
"B0FFHGIQSQ","美居新生活建材馆","购物服务;商场;购物中心","060101","[]","奥体南路12号","113.414840","23.132618","113.40932020541374","23.135114299599614","[]","广东省","广州市","天河区"
"B0FFK7GFTM","东英·国际机械城","购物服务;商场;商场","060100","[]","中山大道中珠村","113.424095","23.114315","113.41858546187417","23.116825871842988","[]","广东省","广州市","天河区"
"B0FFGDKE4R","博裕广场","购物服务;商场;普通商场","060102","[]","中山大道中1088号","113.418908","23.117008","113.41339270407641","23.11951328448281","020-66805456","广东省","广州市","天河区"
"B00141I7LX","天河城百货(奥体店)","购物服务;商场;普通商场","060102","[]","奥体南路12号优托邦4期1-3层","113.416030","23.129499","113.41051133605366","23.131997256130447","020-32095160","广东省","广州市","天河区"
"B0FFFDAXS4","乐都汇","购物服务;商场;购物中心","060101","[]","中山大道1116号(近BRT珠村站)","113.420519","23.115937","113.41500536447727","23.118443986041438","020-22167000","广东省","广州市","天河区"
"B0FFIWUBKQ","时代潮流城","购物服务;商场;普通商场","060102","[]","黄村环村西路与园丁路交叉口西北40米","113.412640","23.122568","113.4071193887016","23.125067217551308","[]","广东省","广州市","天河区"
"B0FFHSS4HQ","莲溪国际机械城C区","购物服务;商场;商场","060100","[]","莲溪东路自编8号","113.425275","23.110925","113.41976714914638","23.113438449871204","[]","广东省","广州市","天河区"
"B0FFG20FMX","好邻居购物广场(福齐乐百货)","购物服务;商场;购物中心|购物服务;超级市场;超市","060101|060400","[]","东圃黄村路5号","113.409913","23.124717","113.40439071115911","23.12721424518454","[]","广东省","广州市","天河区"
"B0HU4HLHJ0","珠江荟","购物服务;商场;商场","060100","[]","聚德北路与聚德路交叉口东南80米","113.329519","23.085776","113.3240888656132","23.08837688016363","[]","广东省","广州市","海珠区"
"B0FFLKMAWG","蕙海商业中心","购物服务;商场;普通商场|购物服务;特色商业街;特色商业街","060102|061000","[]","磨碟沙大街11号1号","113.335923","23.098776","113.3304789113003","23.10135928724048","020-89238268","广东省","广州市","海珠区"
"B00140T6RF","东鸿百货","购物服务;商场;普通商场","060102","[]","龙潭村东环街31号","113.336864","23.081433","113.3314191912057","23.084021767797203","020-34042829","广东省","广州市","海珠区"
"B00140U2C2","六福商业广场","购物服务;商场;购物中心","060101","[]","赤岗路17-19号","113.327067","23.087080","113.32164182187695","23.089685014806918","020-22067005;020-22067006;020-34208922","广东省","广州市","海珠区"
"B00141RDXP","纵横广场","购物服务;商场;购物中心","060101","[]","新港中路456号(赤岗地铁站C1口步行370米)","113.330615","23.095815","113.32518193381814","23.09840959329745","[]","广东省","广州市","海珠区"
"B00141JDC8","丽影广场C区","购物服务;商场;普通商场","060102","[]","新港中路356号(客村地铁站C口旁)","113.319989","23.095758","113.31457776785972","23.09837283465975","[]","广东省","广州市","海珠区"
"B00141JLB7","天鸿百货(满鸿商店)","购物服务;商场;商场|购物服务;超级市场;超市","060100|060400","[]","聚德中路","113.326108","23.085035","113.32068493491388","23.087642702944727","020-84160036","广东省","广州市","海珠区"
"B0H6MUH9AE","优乐购商业广场","购物服务;商场;普通商场|购物服务;特色商业街;特色商业街","060102|061000","[]","赤沙路南约西行38号之五","113.355515","23.085528","113.3500348122565","23.088082039146197","020-34407200","广东省","广州市","海珠区"
"B0HKOUGUZL","Crying Center","购物服务;商场;普通商场","060102","[]","赤岗西路与碧映路交叉口西南20米","113.323417","23.089050","113.31799919916114","23.091661145709928","[]","广东省","广州市","海珠区"
"B00141S1XP","新港商业城","购物服务;商场;普通商场","060102","[]","新港中路304号(近纺织服装学校)","113.325682","23.095494","113.32025910314499","23.09809814244821","020-34025838","广东省","广州市","海珠区"
"B00140TCFB","丽影广场A区(新港中路)","购物服务;商场;商场","060100","[]","新港中路365号(客村地铁站D口步行200米)","113.322571","23.095683","113.31715448729867","23.09829298361218","[]","广东省","广州市","海珠区"
"B0I3FRTK7U","广州市·琶洲汇","购物服务;商场;普通商场","060102","[]","芳园路与磨碟沙路辅路交叉口东60米","113.335056","23.103647","113.3296133358358","23.10622990625196","[]","广东省","广州市","海珠区"
"B0FFGD1FS7","万德信百货","购物服务;商场;普通商场","060102","[]","大塘马基大街12号","113.322244","23.082562","113.31682904664035","23.08517809472124","[]","广东省","广州市","海珠区"
"B00140TCVU","名粤广场商贸城","购物服务;商场;普通商场","060102","[]","广州大道南1021号","113.316199","23.082381","113.3107963601958","23.08500851900088","020-34174647","广东省","广州市","海珠区"
"B00141TJQS","珠影·星光城","购物服务;商场;商场","060100","[]","新港中路354号(客村地铁站D口步行200米)","113.321199","23.094506","113.31578537932992","23.09711907256626","020-84038888","广东省","广州市","海珠区"
"B00141R9KU","四季天地","购物服务;商场;普通商场","060102","[]","赤岗北路118号","113.328329","23.100811","113.32290029309961","23.10340788133133","020-89440366","广东省","广州市","海珠区"
"B0GKHAYEXB","潮营cc","购物服务;商场;商场","060100","[]","广州国际媒体港东1门潮墟潮营","113.322760","23.105702","113.3173424205818","23.108307472616456","[]","广东省","广州市","海珠区"
"B00140NEG3","家丰百货(桥南新街店)","购物服务;商场;购物中心","060101","[]","上冲马基大街12号之一","113.321971","23.082788","113.31655659113419","23.085404517082317","020-89442483","广东省","广州市","海珠区"
"B00140VB15","华泰服装商场","购物服务;商场;普通商场","060102","[]","华泰西街8巷1号","113.349510","23.072400","113.34404133970904","23.074969632437718","[]","广东省","广州市","海珠区"
"B0FFISG658","万德信百货(上冲南店)","购物服务;商场;普通商场|购物服务;便民商店/便利店;便民商店/便利店","060102|060200","[]","上冲南约12号(大塘地铁站A口步行410米)","113.318547","23.078647","113.31313986215214","23.08127171468664","[]","广东省","广州市","海珠区"
"B0FFG6B0KZ","缤纷天地","购物服务;商场;购物中心","060101","[]","云城西路880号(白云公园地铁站A口步行310米)","113.268733","23.180024","113.26339673460002","23.18267815956811","[]","广东省","广州市","白云区"
"B0FFHQKXM7","凯德广场云尚","购物服务;商场;普通商场|购物服务;商场;购物中心","060102|060101","[]","云城西路890号(白云公园地铁站A口步行100米)","113.269267","23.180739","113.26393023697162","23.183392512047327","020-66316666","广东省","广州市","白云区"
"B00140W8N3","5号停机坪购物广场","购物服务;商场;购物中心","060101","[]","云霄路353号","113.264981","23.181123","113.25964751860091","23.18377913822187","020-66853555;020-66855555","广东省","广州市","白云区"
"B00141IFCP","万达广场(白云店)","购物服务;商场;购物中心","060101","[]","云城东路501号","113.266727","23.172397","113.26139284129299","23.175055365427003","[]","广东省","广州市","白云区"
"B0FFFTEK9W","万达广场B区(白云店)","购物服务;商场;购物中心","060101","[]","云城东路501号","113.266050","23.172580","113.26071633278114","23.175238715880603","[]","广东省","广州市","白云区"
"B00140H5Z6","白云国际机场商贸中心","购物服务;商场;普通商场","060102","[]","机场路615号","113.259129","23.177060","113.25379917471251","23.179720357706632","[]","广东省","广州市","白云区"
"B0FFHCDPBE","机场店","购物服务;商场;免税品店","060103","[]","机场路601号","113.258413","23.176684","113.25308352229817","23.179344741924417","[]","广东省","广州市","白云区"
"B0FFHRQS94","名汇奥特莱斯","购物服务;商场;购物中心","060101","[]","机场路585号鹏景大厦1层108号","113.259192","23.174365","113.25386232648226","23.17702634895511","020-36227723;13570914500","广东省","广州市","白云区"
"B0FFLKQHIR","韩汇里","购物服务;商场;普通商场|购物服务;特色商业街;步行街","060102|061001","[]","棠景路181号","113.256700","23.173148","113.25137144903783","23.17581057707264","020-86280688","广东省","广州市","白云区"
"B0FFG9IS7F","广星广场","购物服务;商场;普通商场","060102","[]","岗贝路19号","113.254665","23.180114","113.24933664883795","23.182774415843408","[]","广东省","广州市","白云区"
"B0FFJ7QC9A","太阳广场","购物服务;商场;普通商场|购物服务;服装鞋帽皮具店;服装鞋帽皮具店|购物服务;超级市场;超市","060102|061100|060400","[]","新市墟萧岗市场1号楼","113.263211","23.192063","113.25787794581969","23.194716052834877","15920169685","广东省","广州市","白云区"
"B0FFHQEXHN","丰润商业广场","购物服务;商场;商场","060100","[]","金钟横路318号","113.266365","23.167031","113.26103147352977","23.1696916304033","020-86333993","广东省","广州市","白云区"
"B00141R1RH","联富文化商业广场","购物服务;商场;商场","060100","[]","新市南街55号新市天地F1","113.264876","23.191112","113.25954191913289","23.19376450997615","[]","广东省","广州市","白云区"
"B0FFF3UXMZ","中福商业中心","购物服务;商场;普通商场","060102","[]","远景路173号","113.255646","23.173495","113.25031779210703","23.17615770091787","[]","广东省","广州市","白云区"
"B00141RHCM","金浚海广场","购物服务;商场;普通商场","060102","[]","岗贝路3-3号","113.251986","23.179868","113.2466582934366","23.18252886676724","[]","广东省","广州市","白云区"
"B0FFF2IN9H","时代商业中心","购物服务;商场;商场","060100","[]","远景路与心谊路交叉口西北20米","113.255838","23.172944","113.25050976565983","23.175606865715213","020-86272878","广东省","广州市","白云区"
"B0FFL2T6KV","Kimlife Home(228创意园B座店)","购物服务;商场;免税品店","060103","[]","云城西路228号228创意园C座103","113.272241","23.190315","113.26690089765475","23.192962669363375","13048038885","广东省","广州市","白云区"
"B0FFM1FERK","兴发广场d座","购物服务;商场;普通商场","060102","[]","机场路138号兴发广场2期","113.264997","23.166363","113.2596644997374","23.169024698442215","[]","广东省","广州市","白云区"
"B0FFG92RK1","新市天地","购物服务;商场;普通商场","060102","[]","新市南街45号","113.265748","23.191931","113.26041325059552","23.194582704045143","020-36212888;020-36229999","广东省","广州市","白云区"
"B0FFKAS9FF","兴发广场B座","购物服务;商场;普通商场|商务住宅;楼宇;商务写字楼","060102|120201","[]","石榴桥路与兴发西路交叉口东80米","113.264133","23.165175","113.25880116265313","23.167837631131636","[]","广东省","广州市","白云区"
"B0FFM4G2XZ","天河里滨河街区","购物服务;商场;商场","060100","[]","元京路与元岗横路交叉口西南280米","113.336269","23.174340","113.33081906943247","23.176892573158167","[]","广东省","广州市","天河区"
"B0FFFXONVA","佳恩百货(元岗街店)","购物服务;商场;普通商场","060102","[]","上元岗市场二楼","113.343766","23.176277","113.33830108879924","23.17881496090529","020-37085819","广东省","广州市","天河区"
"B0FFF9S251","银之座","购物服务;商场;普通商场","060102","[]","京溪路99号-101号","113.328939","23.182587","113.32350348099183","23.1851504118008","[]","广东省","广州市","白云区"
"B0FFLCVVFH","天河慧通产业广场A3号楼","购物服务;商场;普通商场","060102","[]","元岗路与元岗横路交叉口南180米","113.340590","23.171772","113.33513160635101","23.174317476297453","[]","广东省","广州市","天河区"
"B00141KFHR","云景商贸中心","购物服务;商场;商场","060100","[]","京溪路与京溪中路交叉口东北80米","113.328561","23.183336","113.32312620807772","23.185899855386687","[]","广东省","广州市","白云区"
"B0GD7Y8MWY","weillbo","购物服务;商场;免税品店","060103","[]","中成路酷车城B2-8","113.342607","23.186603","113.33714363422617","23.189139224986857","15002088982","广东省","广州市","天河区"
"B00140VAUE","河水购物城","购物服务;商场;普通商场","060102","[]","沙太南路770-774号","113.331229","23.172777","113.32578944321978","23.175339720102567","020-37391471","广东省","广州市","天河区"
"B00141JGXG","元岗商业广场","购物服务;商场;普通商场","060102","[]","元岗路636号(天河客运站旁)","113.339088","23.170954","113.33363264283952","23.173502572839","[]","广东省","广州市","天河区"
"B0FFFCOJZ9","广州国际农资商品交易城","购物服务;商场;商场","060100","[]","天源路180-1号","113.348504","23.175139","113.34303018581379","23.177668950863215","020-28916166","广东省","广州市","天河区"
"B00141SP4H","云山汇","购物服务;商场;购物中心","060101","[]","广州大道北怡新路139号","113.325225","23.176246","113.3197975624196","23.178818870301807","[]","广东省","广州市","白云区"
"B0FFLF7V85","利多多商业园","购物服务;商场;普通商场","060102","[]","沙太北路1018号农批市场","113.338824","23.190589","113.3333678298423","23.193130745081998","[]","广东省","广州市","白云区"
"B0FFF9S3TT","乐圣地","购物服务;商场;普通商场","060102","[]","广州大道北1521号(京溪南方医院地铁站D口旁)","113.325631","23.185346","113.32020210727077","23.187914703688296","[]","广东省","广州市","白云区"
"B0FFGCFG7O","圣地广场","购物服务;商场;购物中心","060101","[]","广州大道北1421号圣地大厦1-3层","113.322304","23.181466","113.31688221562595","23.18404247266348","020-87069888","广东省","广州市","白云区"
"B00141UB8C","毅兴商业城","购物服务;商场;普通商场","060102","[]","广州大道北1849号疗养院大门北","113.327367","23.189788","113.32193422812755","23.19235175493716","020-37388055","广东省","广州市","白云区"
"B00140W64Z","京骏商业城","购物服务;商场;普通商场","060102","[]","白云大道北麦地中街20号","113.322532","23.182815","113.31710965580939","23.185390538487","020-87272634","广东省","广州市","白云区"
"B0H6YA9B2L","天健广场","购物服务;商场;普通商场|购物服务;家居建材市场;家具建材综合市场","060102|060601","[]","同和镇沙太路天健广场E5115","113.335318","23.192602","113.32986874898177","23.19514959197454","020-87044782;13535119206","广东省","广州市","白云区"
"B00140W8RM","梅花园广场","购物服务;商场;普通商场","060102","[]","广州大道北28号(梅花园地铁站B口步行420米)","113.321126","23.178517","113.31570683148435","23.181096804036606","020-87099986","广东省","广州市","白云区"
"B00140WETQ","摩登百货(圣地店)","购物服务;商场;普通商场","060102","[]","广州大道北1420号","113.322397","23.181530","113.31697502034723","23.184106272464156","020-87230853;020-87270632;020-87270686","广东省","广州市","白云区"
"B0H2BHJOT9","长兴购物中心","购物服务;商场;购物中心","060101","[]","长兴路13号","113.347696","23.170050","113.34222403793882","23.172583291161573","020-37083611","广东省","广州市","天河区"
"B0FFH9BB0E","信达金茂广场","购物服务;商场;购物中心","060101","[]","广州大道北920号(梅花园地铁站D口步行470米)","113.319125","23.170889","113.31371043705897","23.17347544862364","[]","广东省","广州市","天河区"
"B0HUAS14QG","新一城广场","购物服务;商场;普通商场","060102","[]","宝业路与宝岗大道交叉口西南60米","113.266869","23.092423","113.26154010173762","23.09511324449452","020-34374188","广东省","广州市","海珠区"
"B0FFJRX75S","新一城广场三期(广百广场店)","购物服务;商场;商场","060100","[]","宝岗大道538-5号","113.266591","23.092431","113.26126231150887","23.095121416879948","[]","广东省","广州市","海珠区"
"B0HK1S5S9R","广百百货家电区(新一城XMALL A区)","购物服务;商场;商场","060100","[]","宝岗大道498号新一城XMALL A区F5","113.266327","23.093392","113.26099844412558","23.09608218025254","[]","广东省","广州市","海珠区"
"B0FFHRGPE8","广百广场(海珠新一城店)","购物服务;商场;购物中心","060101","[]","宝岗大道498号","113.266099","23.093747","113.26077058837416","23.096437172102565","020-84390288","广东省","广州市","海珠区"
"B001402ECD","江南西恒基商城","购物服务;商场;普通商场","060102","[]","宝业路与西华北直街交叉口东北60米","113.263912","23.091712","113.2585852363523","23.094404267213772","[]","广东省","广州市","海珠区"
"B0FFL7Z7LZ","广百新一城(宝岗大道)","购物服务;商场;购物中心","060101","[]","宝岗大道498号","113.266098","23.093750","113.2607695889058","23.09644017146119","18122026498","广东省","广州市","海珠区"
"B0FFITDN6V","江南新汇","购物服务;商场;普通商场","060102","[]","宝业路西华北直街12号(顺德渔村)","113.263332","23.091578","113.25800561555953","23.09427062435541","[]","广东省","广州市","海珠区"
"B00140PT0V","佳都商贸中心","购物服务;商场;普通商场","060102","[]","侨苑一街3号(宝岗大道地铁站D口步行330米)","113.273539","23.087291","113.26820454370944","23.08997835618069","[]","广东省","广州市","海珠区"
"B0G3MU1BPK","南康阁商业城","购物服务;商场;商场","060100","[]","宝岗大道南康阁","113.266618","23.094032","113.2612891839093","23.096721732174522","[]","广东省","广州市","海珠区"
"B0FFLNGBCM","蓝天里招商中心","购物服务;商场;普通商场|生活服务;生活服务场所;生活服务场所","060102|070000","[]","江南大道中254号(昌岗地铁站C2口步行210米)","113.275657","23.092772","113.27031996724554","23.095455145213094","020-38093336","广东省","广州市","海珠区"
"B0FFH8WFT9","铭成汇","购物服务;商场;普通商场","060102","[]","礼岗路与昌岗路交叉口东南60米","113.274498","23.087551","113.2691625456468","23.090237397012867","[]","广东省","广州市","海珠区"
"B0FFI6HUW6","名冠服装批发城","购物服务;商场;普通商场","060102","[]","昌岗中路187号金昌大厦1-3层(近信和广场)","113.273148","23.088042","113.26781388383314","23.090729379260708","020-84417525","广东省","广州市","海珠区"
"B00140BO2B","信和广场","购物服务;商场;购物中心","060101","[]","昌岗中路239号","113.274818","23.089540","113.26948207782894","23.092225273696126","[]","广东省","广州市","海珠区"
"B0HBO6J2YN","海珠购物中心","购物服务;商场;购物中心","060101","[]","穗花新村三巷与江南大道中辅路交叉口东南60米","113.275699","23.094263","113.27036182182499","23.096945483898583","[]","广东省","广州市","海珠区"
"B0HDZ94I8Q","IP Station(富力海珠城A区)","购物服务;商场;商场|室内设施;室内设施;室内设施","060100|970000","[]","江南西路与江南大道中交叉口(江南西地铁站B口旁)富力海珠城A区B1层","113.273428","23.095496","113.26809310482385","23.098180025270544","4001859198","广东省","广州市","海珠区"
"B0FFF9TQA9","江南西·名店城","购物服务;商场;普通商场","060102","[]","江南西路8号(江南西地铁站A口步行60米)","113.273124","23.096138","113.26778936465034","23.098822019945874","020-84497535","广东省","广州市","海珠区"
"B0FFGXLZHY","富力海珠城","购物服务;商场;普通商场|购物服务;商场;购物中心","060102|060101","[]","江南西路与江南大道中交叉口(江南西地铁站B口旁)","113.273816","23.095453","113.26848071636329","23.098136704381687","020-89623777;020-89626888","广东省","广州市","海珠区"
"B0G1N537O3","海珠·合生生活天地","购物服务;商场;普通商场","060102","[]","昌岗中路188号(昌岗地铁站E口旁)","113.275219","23.088564","113.26988271917872","23.091249313161846","020-61230666","广东省","广州市","海珠区"
"B0014024CF","新安购物广场","购物服务;商场;购物中心|购物服务;商场;普通商场","060101|060102","[]","江南大道中229号(江南西地铁站A口步行430米)","113.276054","23.093839","113.27071646422316","23.096521323835052","[]","广东省","广州市","海珠区"
"B0FFG4G61W","可逸倾城","购物服务;商场;普通商场","060102","[]","宝岗大道396号(可逸豪苑2期内)","113.264355","23.096148","113.2590276476338","23.098838179764012","[]","广东省","广州市","海珠区"
"B0FFM4QG22","华隆商贸城","购物服务;商场;普通商场","060102","[]","镇龙镇新市场","113.582822","23.278489","113.57772531541076","23.281294512329886","[]","广东省","广州市","黄埔区"
"B0HAJX7QRN","子强百货","购物服务;商场;商场","060100","[]","文明路82号","113.696379","23.273391","113.69119215118025","23.276066556470983","[]","广东省","广州市","增城区"
"B0H17A7IY6","远达汇聚","购物服务;商场;普通商场","060102","[]","从城大道99号(从化客运站地铁站D口步行220米)","113.594030","23.529860","113.58892606064597","23.532632106697047","020-87968888","广东省","广州市","从化区"
"B0FFL5OW4R","雪松菁英汇(建设中)","购物服务;商场;购物中心","060101","[]","新城大道与爱民大道交叉口北40米","113.816578","23.261928","113.81148723877841","23.264629052589964","020-87258888","广东省","广州市","增城区"
"B00141PQZ5","百惠佳购物商场","购物服务;商场;普通商场","060102","[]","中新镇福和市场侨港路11号","113.633200","23.359715","113.62809689741647","23.362479844697848","[]","广东省","广州市","增城区"
"B0FFGO0JMC","金园商业广场","购物服务;商场;普通商场","060102","[]","富鹏路与增派大道交叉口东南60米","113.823059","23.302520","113.81798288916137","23.305221385588542","[]","广东省","广州市","增城区"
"B0FFGO2X9F","佰乐广场","购物服务;商场;普通商场","060102","[]","富安路58号","113.822960","23.301633","113.81788368078465","23.304334438685498","[]","广东省","广州市","增城区"
"B00140M6UN","地王广场","购物服务;商场;普通商场","060102","[]","挂绿路6号","113.833039","23.289757","113.8279907639809","23.292480779140803","020-32851813","广东省","广州市","增城区"
"B0FFMFL3U2","珠江壹城·壹悦广场","购物服务;商场;商场","060100","[]","太平镇神岗社区广从南路2231号","113.519366","23.477449","113.51410259513787","23.480095832911463","[]","广东省","广州市","从化区"
"B0FFGKRS9I","时代广场(挂绿路)","购物服务;商场;普通商场","060102","[]","挂绿路6号时代广场2号店1楼","113.833297","23.290157","113.82824943555221","23.292881152290484","020-82725990","广东省","广州市","增城区"
"B001409C6F","挂绿广场","购物服务;商场;购物中心","060101","[]","挂绿路2号","113.833252","23.290995","113.82820425861824","23.29371883148302","020-82723838","广东省","广州市","增城区"
"B0G0BB0415","维依德店","购物服务;商场;免税品店","060103","[]","城丰路37号","113.828045","23.294238","113.82298293136803","23.296951080152873","[]","广东省","广州市","增城区"
"B0FFGNGSWO","敏捷锦绣广场","购物服务;商场;普通商场","060102","[]","府佑西路108号","113.811412","23.286840","113.80630607701123","23.289524267052112","[]","广东省","广州市","增城区"
"B00140WBA9","东汇城2期","购物服务;商场;购物中心","060101","[]","荔城街观翠路10号106房","113.819518","23.285226","113.8144335198216","23.28792555908761","[]","广东省","广州市","增城区"
"B00140W7P4","嘉禾广场","购物服务;商场;普通商场","060102","[]","中新镇广东农工商学院(中新地铁站A口步行200米)","113.613742","23.285050","113.60865678973215","23.287853171882798","[]","广东省","广州市","增城区"
"B0FFF4CDB7","金钻城市广场","购物服务;商场;商场","060100","[]","中福路与新市路交叉口西100米","113.618870","23.287484","113.61378256297822","23.290282551571476","[]","广东省","广州市","增城区"
"B0G0D63DVM","CLEVER","购物服务;商场;免税品店","060103","[]","荔城街新桥路增城区荔阳幼儿园","113.832589","23.292290","113.82753937918005","23.29501221837194","[]","广东省","广州市","增城区"
"B0HAA76AJI","1978·十三行","购物服务;商场;商场","060100","[]","沿江东三路15号C区","113.844556","23.296992","113.83953800213098","23.299735006442415","[]","广东省","广州市","增城区"
"B0FFFAIFFP","天马商场","购物服务;商场;普通商场","060102","[]","广汕公路东50米","113.873433","23.229114","113.86848602250436","23.23192115363453","[]","广东省","广州市","增城区"
"B00140V174","泰富广场","购物服务;商场;普通商场","060102","[]","西城路23号","113.831667","23.287662","113.8266151871261","23.290383784286938","020-82718888","广东省","广州市","增城区"
"B00140UE3K","美佳购物广场","购物服务;商场;购物中心","060101","[]","九龙镇镇龙新市场","113.583016","23.278398","113.57791953473306","23.281203668227743","[]","广东省","广州市","黄埔区"
"B0FFK0N04M","合汇广场","购物服务;商场;普通商场","060102","[]","府佑路正福珠宝东50米","113.819522","23.282507","113.81443771035389","23.285207350310408","[]","广东省","广州市","增城区"
"B0FFJ95VOK","增江商业广场","购物服务;商场;普通商场","060102","[]","增江大道北","113.842786","23.279023","113.83776454445645","23.281767929703292","020-32889998","广东省","广州市","增城区"
"B0FFLA0C8F","金地香山湖花溪小镇","购物服务;商场;购物中心","060101","[]","永宁街金地香山湖旁香景花园","113.611460","23.226777","113.60637920557188","23.229599880757085","[]","广东省","广州市","增城区"
"B00141S2BO","东汇城","购物服务;商场;购物中心","060101","[]","荔城街府佑路98号","113.818844","23.284194","113.81375778780537","23.286892600254905","13143710087","广东省","广州市","增城区"
"B0I1RH5T2I","LifE•御溪商业中心","购物服务;商场;普通商场","060102","[]","风光路397号","113.610450","23.285962","113.60536549338717","23.288766892767416","[]","广东省","广州市","增城区"
"B00141KFSW","广州增城万达广场","购物服务;商场;购物中心","060101","[]","增城大道69号","113.815083","23.275833","113.80998737474474","23.278527102580696","020-26216998;020-32838222;020-32838666","广东省","广州市","增城区"
"B0I1YM594C","星汇城","购物服务;商场;普通商场","060102","[]","广汕公路与丰彩街交叉口北160米","113.593702","23.284287","113.58861414090612","23.287095452302555","[]","广东省","广州市","黄埔区"
"B0GUC58TUS","合景·悠方(广州知识城)","购物服务;商场;商场","060100","[]","中新知识城九龙大道与凤湖一路交叉口北侧","113.553845","23.323182","113.54869407369272","23.32593760810659","020-82388648","广东省","广州市","黄埔区"
"B0FFM7V0XH","城南邻里中心","购物服务;商场;商场","060100","[]","龙湖街道何棠下村凤湖四路与九龙大道交汇处","113.543241","23.329879","113.53806208402693","23.332610756653718","[]","广东省","广州市","黄埔区"
"B0GUFOEZ5L","金河湾广场","购物服务;商场;商场","060100","[]","增城大道与荔城沿江西路交叉口西北200米","113.823189","23.274262","113.81811510723024","23.276971648524526","[]","广东省","广州市","增城区"
"B0FFHWM9JM","宁西林屋商业铺","购物服务;商场;商场","060100","[]","朱宁路与工业一路交叉口东北20米","113.666527","23.226563","113.66138763172538","23.22930860100782","[]","广东省","广州市","增城区"
"B0FFK835M3","新都汇","购物服务;商场;普通商场","060102","[]","丽莎广场","113.166921","23.466515","113.16147401885534","23.469004036696052","[]","广东省","广州市","花都区"
"B00141JVOG","惠美购物商场","购物服务;商场;普通商场|购物服务;超级市场;超市","060102|060400","[]","河滨西路10附近正东方向10号号米","113.224172","23.469029","113.21881461783694","23.471608764223337","[]","广东省","广州市","花都区"
"B0FFG8C104","阳光广场","购物服务;商场;普通商场","060102","[]","花山镇106国道花山市场1-2层","113.277684","23.449349","113.27232061106635","23.451928235676924","020-86847399;13922271381","广东省","广州市","花都区"
"B0FFI5H7IB","花都区联合广场","购物服务;商场;购物中心","060101","[]","狮岭镇宝峰南路6-11号","113.174565","23.463471","113.16913253638636","23.465974734264908","020-86933888","广东省","广州市","花都区"
"B0HKYHWEL7","益群商业中心","购物服务;商场;商场","060100","[]","南航大道北万虹花园东北侧约30米","113.187048","23.469211","113.18163817527976","23.471737480489196","[]","广东省","广州市","花都区"
"B0FFMD5UYQ","合成·新天地","购物服务;商场;普通商场|商务住宅;楼宇;商务写字楼","060102|120201","[]","横三新区西五巷12正西方向90米","113.183402","23.452262","113.17798672396341","23.454783257380758","[]","广东省","广州市","花都区"
"B0FFGP2H9U","同富乐(联合店)","购物服务;商场;普通商场","060102","[]","狮岭镇雄狮东路5号","113.166441","23.458439","113.16099368048457","23.460927794903068","[]","广东省","广州市","花都区"
"B0J6AXA3ZK","花都区喜居百货商场","购物服务;商场;普通商场","060102","[]","金狮大道东与新扬小学街交叉口西340米","113.203241","23.471168","113.19785801869796","23.473721528941265","[]","广东省","广州市","花都区"
"B0I2TNSK99","壹加壹","购物服务;商场;商场","060100","[]","振兴双龙一巷与双龙路交叉口西北80米","113.173428","23.481295","113.1679921821736","23.483795346765003","[]","广东省","广州市","花都区"
"B0FFH0X2QU","丽莎广场","购物服务;商场;商场","060100","[]","金狮大道东与阳光北路交叉口南60米","113.166977","23.465785","113.16153017313047","23.46827419865173","020-36978222","广东省","广州市","花都区"
"B00141TBY6","友田城","购物服务;商场;商场","060100","[]","狮岭镇盘古南路6号","113.155751","23.462064","113.15028406465116","23.464532773262427","020-22687288","广东省","广州市","花都区"
"B0FFF2LMY7","香港街时尚生活购物中心","购物服务;商场;购物中心|公司企业;公司;公司","060101|170200","[]","望成路16号-2附近","113.181936","23.448118","113.17651831496255","23.450636952184517","[]","广东省","广州市","花都区"
"B00140W2VU","东福百货购物广场(合成北路)","购物服务;商场;普通商场","060102","[]","狮岭大道中1号合成大酒店1-3层","113.180641","23.452472","113.17522062554627","23.45498812037775","020-86917162","广东省","广州市","花都区"
"B0FFLJ66QD","贝店我的店","购物服务;商场;免税品店","060103","[]","合群庄后街与团结村中街交叉口西北80米","113.178054","23.465311","113.17262793843489","23.467821167011092","[]","广东省","广州市","花都区"
"B0FFH8JSBR","盛世电商广场","购物服务;商场;普通商场|购物服务;便民商店/便利店;便民商店/便利店","060102|060200","[]","祥丰南路与合成村石拱桥一街交叉口西南160米","113.183236","23.447672","113.17782073371751","23.450193400654427","[]","广东省","广州市","花都区"
"B0FFFOZC6R","物业中心","购物服务;商场;普通商场|公司企业;公司;公司","060102|170200","[]","狮岭镇合成南路7号","113.181935","23.448118","113.17651731312031","23.45063695033025","[]","广东省","广州市","花都区"
"B0FFGB9MTC","合兴商场","购物服务;商场;普通商场","060102","[]","花山镇两龙南街21号","113.276499","23.450178","113.27113689660716","23.45275832611292","[]","广东省","广州市","花都区"
"B0HAN1O876","快乐购生活购物中心(金狮大道东店)","购物服务;商场;购物中心","060101","[]","团结村中街与团四新村五街交叉口东南80米","113.177965","23.464016","113.17253886105814","23.466526102365624","[]","广东省","广州市","花都区"
"B0FFKZLACI","盈泰广场","购物服务;商场;商场","060100","[]","金狮大道西76号-之10附近","113.157137","23.468362","113.15167207025371","23.470832773389176","020-37709313","广东省","广州市","花都区"
"B00141JAW0","银锣湾广场","购物服务;商场;普通商场","060102","[]","合成村南航大道东康健东路1号","113.184793","23.453352","113.17938018682788","23.455875707848943","[]","广东省","广州市","花都区"
"B00141JSIC","东福百货广场","购物服务;商场;普通商场","060102","[]","康政东路1号","113.160124","23.462714","113.15466479876775","23.465190663413036","13553928948","广东省","广州市","花都区"
"B0FFH11S5A","花山小镇艺霖坊","购物服务;商场;商场","060100","[]","花山镇洛场村14号","113.284568","23.439590","113.2791965635414","23.442162573842474","[]","广东省","广州市","花都区"
"B00140UFHI","太子城","购物服务;商场;购物中心","060101","[]","田心路","113.167886","23.456572","113.16244149837358","23.45906368356772","020-86918105","广东省","广州市","花都区"
"B0FFKKK3XN","融创茂","购物服务;商场;购物中心","060101","[]","凤凰北路63号","113.232409","23.426934","113.22706056361085","23.42952450573477","020-36899782;020-36899783;4006332888","广东省","广州市","花都区"
"B00141JCZY","喜龙皮具辅料采购中心","购物服务;商场;普通商场","060102","[]","狮岭镇狮岭大道西6号喜龙商务大厦","113.167078","23.457286","113.16163194404963","23.45977609596461","[]","广东省","广州市","花都区"
"B0FFI69TM2","富力环球商品贸易港","购物服务;商场;购物中心","060101","[]","平步大道中","113.195718","23.428523","113.19032597863307","23.431068645093237","020-37738777","广东省","广州市","花都区"
"B0FFKZWT17","合兴广场(花山市场店)","购物服务;商场;普通商场","060102","[]","两龙南街花山市场","113.277484","23.449555","113.27212082689248","23.452134416355015","[]","广东省","广州市","花都区"
"B0FFI0OVUT","福达广场","购物服务;商场;购物中心","060101","[]","凤凰北路与平步大道交汇处西侧","113.233625","23.423433","113.2282774877589","23.426024717800544","020-86892668","广东省","广州市","花都区"
"B0FFGMULC8","圣地狮岭国际皮具城","购物服务;商场;商场","060100","[]","狮岭大道东附近","113.192318","23.427990","113.18692025949969","23.43052991326694","[]","广东省","广州市","花都区"
"B0FFK91JIQ","雅居乐汇通天地","购物服务;商场;普通商场","060102","[]","花都永发路16号","113.187223","23.422188","113.18181670006388","23.424719647089194","020-36807221","广东省","广州市","花都区"
"B0FFGG7TLL","优品行(百合路店)","购物服务;商场;免税品店|购物服务;专卖店;专营店","060103|061200","[]","新华街百合路金穗华庭13号街铺","113.225048","23.405037","113.21969572631431","23.40762486211178","15813300716","广东省","广州市","花都区"
"B0G3GZSO3U","和盛广场","购物服务;商场;商场","060100","[]","花都大道中143号","113.202072","23.428475","113.19669015054323","23.43103091602023","13319344283","广东省","广州市","花都区"
"B0HAK1K9FS","永旺梦乐城(骏壹万邦店)","购物服务;商场;购物中心","060101","[]","曙光大道81号永旺超市F1","113.226489","23.405677","113.22113787908556","23.408266029501377","020-36898388;020-37760615","广东省","广州市","花都区"
"B0FFL8L6UC","花都迎宾广场","购物服务;商场;购物中心","060101","[]","三东大道83号","113.217919","23.411990","113.21255928798783","23.41456956382984","020-36991668","广东省","广州市","花都区"
"B00140WEF3","星福百货广场","购物服务;商场;普通商场|购物服务;超级市场;超市","060102|060400","[]","花东镇花都大道花东市场","113.321650","23.435822","113.31621218931593","23.438334448776107","020-86767868","广东省","广州市","花都区"
"B0FFGF9KGS","邦一国际名品馆","购物服务;商场;普通商场","060102","[]","镜湖大道北37号附近","113.248779","23.347719","113.2434403560033","23.35032899589535","020-36826829","广东省","广州市","花都区"
"B0FFJFOI0N","金满城购物广场","购物服务;商场;商场","060100","[]","大华二路","113.198932","23.403011","113.19354696237538","23.405565521194898","020-28009082","广东省","广州市","花都区"
"B00140MAU0","和乐商贸城","购物服务;商场;普通商场","060102","[]","彭城一街与彭城二街交叉口东南40米","113.361073","23.291395","113.35556963010163","23.293865927230584","[]","广东省","广州市","白云区"
"B00141PPYW","汇家购物广场","购物服务;商场;商场","060100","[]","江高镇塘贝村(近金泰酒店)","113.232865","23.300810","113.22752536321298","23.303426168530535","13600321794","广东省","广州市","白云区"
"B00141R3Z8","尚美商业城","购物服务;商场;普通商场","060102","[]","秀全路旧广百隔壁(花城路地铁站D口步行250米)","113.209898","23.378653","113.2045307822527","23.381228062092244","[]","广东省","广州市","花都区"
"B0IUPSLEO5","杜鹃广场","购物服务;商场;普通商场|生活服务;生活服务场所;生活服务场所","060102|070000","[]","紫娇东街2号之十","113.224023","23.421843","113.21866869078528","23.424427510379658","[]","广东省","广州市","花都区"
"B00141J9IC","世界名店城","购物服务;商场;普通商场","060102","[]","公益路34号","113.217201","23.400393","113.2118412805441","23.40297350917744","13725101599","广东省","广州市","花都区"
"B00141K982","天虹购物商场","购物服务;商场;普通商场","060102","[]","鳌头镇旗杆镇中路","113.504499","23.579347","113.49917700741204","23.581950200730432","15217469291","广东省","广州市","从化区"
"B0FFLOYJ51","喜客汇购物广场(好又多店)","购物服务;商场;普通商场|购物服务;便民商店/便利店;便民商店/便利店","060102|060200","[]","钟落潭","113.405678","23.384131","113.40013616764095","23.38654744795341","020-86214975","广东省","广州市","白云区"
"B0FFGBDMWH","凤凰商业广场","购物服务;商场;普通商场","060102","[]","凤凰村白云街2-29正南方向20米","113.253875","23.405298","113.24853166745163","23.40789690462832","[]","广东省","广州市","花都区"
"B00140WERS","光之彩天幕城","购物服务;商场;购物中心","060101","[]","百寿路喜力登饮食风情街C9-12号附近","113.238884","23.403823","113.2335401360315","23.406420196315707","[]","广东省","广州市","花都区"
"B0FFH18J4P","世界优品汇","购物服务;商场;商场","060100","[]","金谷北路与永大路交叉口北80米","113.360199","23.468090","113.35468479967702","23.47053009931957","[]","广东省","广州市","花都区"
"B00141IBX4","财富品牌展示中心","购物服务;商场;商场","060100","[]","镜湖大道33号财富工业园","113.250717","23.350447","113.2453779933437","23.35305640137111","[]","广东省","广州市","花都区"
"B0014083AC","友谊购物广场","购物服务;商场;普通商场","060102","[]","钟落潭镇竹料大街55号竹料地税","113.355176","23.366249","113.34967713781667","23.368711067889446","020-87440123;020-87480592","广东省","广州市","白云区"
"B0FFFAEK8U","竹料商业广场","购物服务;商场;普通商场","060102","[]","钟落潭竹料大街6270号","113.355933","23.366616","113.35043282136283","23.369076771915715","[]","广东省","广州市","白云区"
"B0FFF5UPZ1","华大商场(国华购物中心店)","购物服务;商场;普通商场","060102","[]","新中路46号","113.207874","23.375684","113.20250422650645","23.378256810421465","[]","广东省","广州市","花都区"
"B00140V2CW","大拇指跨界商品直购店","购物服务;商场;免税品店|购物服务;便民商店/便利店;便民商店/便利店","060103|060200","[]","新华街公益路1号骏威广场东明楼118号铺","113.216543","23.390922","113.21118318071414","23.393503306328487","020-36912397","广东省","广州市","花都区"
"B0FFLJAJNO","晶品商厦","购物服务;商场;普通商场","060102","[]","城鳌大道东与荔园路交叉口东80米","113.506378","23.578551","113.50106268667919","23.581159793855715","[]","广东省","广州市","从化区"
"B0FFF9YM8O","永旺超市","购物服务;商场;购物中心","060101","[]","新华曙光大道81号骏壹万邦广场内","113.226502","23.405696","113.22115088825309","23.408285037694657","020-36898388;020-37760615","广东省","广州市","花都区"
"B0FFGBS7AB","利涛购物中心","购物服务;商场;购物中心","060101","[]","江高镇高田大街3号","113.210227","23.270509","113.20486754272369","23.273110996638867","18620630190","广东省","广州市","白云区"
"B0FFLJFWE3","若比邻社区商业中心(祈福·辉煌台一期店)","购物服务;商场;普通商场","060102","[]","金钟路祈福辉煌台南岸","113.193718","23.377187","113.18832611244041","23.379737270137262","[]","广东省","广州市","花都区"
"B0H3RCIGCT","悦合集","购物服务;商场;商场","060100","[]","迎宾大道105号9栋101铺","113.235913","23.402799","113.23056802637734","23.405394970774232","[]","广东省","广州市","花都区"
"B0FFH1295X","万花广场","购物服务;商场;普通商场","060102","[]","广花一路214号","113.259584","23.239774","113.25424973979007","23.242412075735114","[]","广东省","广州市","白云区"
"B0FFHIDL7K","美登天下购物中心","购物服务;商场;购物中心","060101","[]","罗岗商山南街罗岗广场","113.270426","23.244866","113.26508390544018","23.247496249722527","[]","广东省","广州市","白云区"
"B0FFGY75BF","润泽商业城","购物服务;商场;普通商场","060102","[]","凤凰北路与花都牡丹街交叉口东北80米","113.234570","23.407598","113.22922405642596","23.41019250221354","[]","广东省","广州市","花都区"
"B0IB2L1XUE","百花广场(花都湖百花商业广场店)","购物服务;商场;商场","060100","[]","天贵路46号花都湖百花商业广场F2","113.223682","23.378959","113.2183302929506","23.381550013141357","[]","广东省","广州市","花都区"
"B0HUT5ZL58","铭润智慧广场(龙归店)","购物服务;商场;普通商场","060102","[]","龙岗南路1号","113.294047","23.266386","113.2886730139008","23.268982545100727","020-36718778;13660456515","广东省","广州市","白云区"
"B0HUAU8OUA","拉丁茂广场购物中心","购物服务;商场;商场","060100","[]","迎宾大道181号(清塘地铁站D口步行380米)","113.260074","23.375154","113.25473035430785","23.37775638549184","020-86822298;13828497693","广东省","广州市","花都区"
"B0HUACAV2I","华源广场","购物服务;商场;普通商场","060102","[]","乐寿北街19号","113.278926","23.238914","113.27357541735252","23.241538475478702","[]","广东省","广州市","白云区"
"B0H22UIC53","极光之城","购物服务;商场;商场","060100","[]","大岭北街2号","113.279850","23.239112","113.27449828820879","23.241735428519565","[]","广东省","广州市","白云区"
"B0GU5ZU32T","天美商业城","购物服务;商场;普通商场|商务住宅;楼宇;商务写字楼","060102|120201","[]","新华街宝华路78号","113.229656","23.391833","113.22430818470127","23.394426793513073","[]","广东省","广州市","花都区"
"B0GKK7YAD8","睿星商业广场","购物服务;商场;商场","060100","[]","嘉禾街鶴龙二路53号","113.279718","23.234584","113.27436675500357","23.23720906701172","13450468979","广东省","广州市","白云区"
"B0GK7S0P41","自由里","购物服务;商场;商场","060100","[]","自由人花园三街","113.221892","23.342222","113.21654110947324","23.344818831881504","[]","广东省","广州市","花都区"
"B0G2Z7GK6K","大源电商文化广场","购物服务;商场;普通商场","060102","[]","大源街道大源中路527号","113.352205","23.251396","113.3467192328571","23.25389300567324","[]","广东省","广州市","白云区"
"B0G2GBJXEF","新亮点商业广场","购物服务;商场;普通商场","060102","[]","新华街道建设路2号太子步行街","113.207987","23.376034","113.20261735958923","23.378606903950473","[]","广东省","广州市","花都区"
"B0FFMEKYO3","钟港商业广场","购物服务;商场;普通商场|购物服务;家居建材市场;家具城","060102|060602","[]","钟落潭镇广从五路491号钟港家具","113.373200","23.357808","113.36767544396321","23.360246599121684","13808894651","广东省","广州市","白云区"
"B0FFMEC6G8","祈福商业广场","购物服务;商场;普通商场","060102","[]","新街大道祈福万景峰","113.199064","23.367614","113.19368157998643","23.370175006117872","[]","广东省","广州市","花都区"
"B0FFLMWPZA","江高商业广场","购物服务;商场;普通商场","060102","[]","夏花三路与江福路交叉口东南80米","113.228204","23.282133","113.22286256285466","23.284751074997956","[]","广东省","广州市","白云区"
"B0FFLM5GDC","永安广场","购物服务;商场;普通商场","060102","[]","夏良路与夏良高桥东路南交叉口东80米","113.317978","23.285749","113.31255795775802","23.28829901235922","[]","广东省","广州市","白云区"
"B0FFLKQTP2","广丰商场(尹边联兴路店)","购物服务;商场;普通商场","060102","[]","嘉禾街长红竹仔园南街3号","113.273380","23.230921","113.26803604481553","23.233553440340515","[]","广东省","广州市","白云区"
"B0FFLICTW0","晟禾商业广场","购物服务;商场;普通商场","060102","[]","新石路138号","113.270445","23.256393","113.26510211080836","23.259019562622264","15876512515","广东省","广州市","白云区"
"B0FFL98FL0","商汇人和广场","购物服务;商场;商场","060100","[]","人和镇鹤龙六路185号(人和地铁站C2口步行80米)","113.296810","23.333664","113.2914268318393","23.336238127267144","020-31236034","广东省","广州市","白云区"
"B0FFL93HDR","华丰广场","购物服务;商场;普通商场","060102","[]","科甲水村新科新石路商业街1188号","113.288672","23.255995","113.28330713697365","23.25860232581805","[]","广东省","广州市","白云区"
"B0FFL31SAV","三丰美食小镇","购物服务;商场;普通商场","060102","[]","长红长湴工业二路12号","113.301426","23.260932","113.29603967025828","23.263518706032396","[]","广东省","广州市","白云区"
"B0FFKU4PCQ","标达广场","购物服务;商场;普通商场","060102","[]","石井镇石沙路286号(亭岗地铁站C口步行480米)","113.217457","23.225627","113.21210938417833","23.228252425662134","[]","广东省","广州市","白云区"
"B0FFKFEK2L","淇旺商场","购物服务;商场;商场","060100","[]","大岭南路55号7-8","113.201101","23.341206","113.19572358268898","23.343775876285594","13760747506","广东省","广州市","白云区"
"B0FFK7T747","汇和天地","购物服务;商场;普通商场|商务住宅;商务住宅相关;商务住宅相关","060102|120000","[]","望岗工业二路26号","113.280588","23.241211","113.27523523514117","23.243832937085767","020-86088288","广东省","广州市","白云区"
"B0FFK2GWF8","富安广场(嘉禾望岗店)","购物服务;商场;普通商场","060102","[]","鹤龙二路富安酒店内","113.281109","23.237939","113.27575580204679","23.240561433454584","18819222399","广东省","广州市","白云区"
"B0FFK1Z5YX","东平文化商业广场","购物服务;商场;普通商场|购物服务;特色商业街;特色商业街","060102|061000","[]","东平大道与东平中路交叉口东60米","113.312434","23.250235","113.30702750071346","23.25280598575463","[]","广东省","广州市","白云区"
"B0FFJXBFQ1","亿达购物广场(高塘店)","购物服务;商场;普通商场","060102","[]","江高镇江详街高塘市场","113.222184","23.271638","113.21683815932776","23.27425376449488","[]","广东省","广州市","白云区"
"B0FFI9G36U","嘉柏廣場","购物服务;商场;普通商场","060102","[]","西岭路与望岗西岭路一巷交叉口西40米","113.272140","23.238561","113.2667967436583","23.2411919482347","[]","广东省","广州市","白云区"
"B0FFHI1OYT","小米广场","购物服务;商场;普通商场","060102","[]","新华街龙珠路31号(花都广场地铁站B口步行460米)","113.225179","23.398016","113.21982731417401","23.4006050884571","[]","广东省","广州市","花都区"
"B0FFHC934R","雄志广场","购物服务;商场;普通商场","060102","[]","广花快速路石马段","113.251303","23.256335","113.24597026296088","23.258969535281793","[]","广东省","广州市","白云区"
"B00141K9MW","鸿磊广场","购物服务;商场;普通商场","060102","[]","江高镇凤翔中路51号","113.215371","23.258686","113.21001877353171","23.261298200819603","[]","广东省","广州市","白云区"
"B00141IC3Z","友和广场","购物服务;商场;普通商场|风景名胜;公园广场;城市广场","060102|110105","[]","秀全大道39号(花城路地铁站D口步行220米)","113.210348","23.379470","113.20498132461756","23.382045520600784","[]","广东省","广州市","花都区"
"B00141IBKK","人山人海商业广场","购物服务;商场;普通商场|购物服务;特色商业街;特色商业街","060102|061000","[]","龙珠路32号","113.231332","23.396907","113.22598494511269","23.399501147542832","020-86882972","广东省","广州市","花都区"
"B00141HZ6J","百花豪苑","购物服务;商场;商场","060100","[]","望岗百花岭北街","113.272451","23.236661","113.26710757246558","23.239292317470163","[]","广东省","广州市","白云区"
"B00140A6D7","心心购物广场","购物服务;商场;购物中心","060101","[]","宝华路36号(花果山公园地铁站C口步行480米)","113.215000","23.389032","113.20963851515863","23.391611786601146","[]","广东省","广州市","花都区"
"B001409125","龙珠市场","购物服务;商场;普通商场","060102","[]","龙珠路37号","113.231158","23.398230","113.22581074565255","23.400823812495705","[]","广东省","广州市","花都区"
"B00141K580","家沃商业广场","购物服务;商场;普通商场","060102","[]","黄边南街6号","113.276706","23.224965","113.27135892243093","23.227596389760244","[]","广东省","广州市","白云区"
"B0H0AHUO49","嘉福广场(嘉福超市店)","购物服务;商场;普通商场","060102","[]","华贵路9-10号嘉福超市(赤坭店)","113.082570","23.384836","113.07706500529416","23.387259859258265","020-37723943","广东省","广州市","花都区"
"B0GK7S0H2C","喜越广场","购物服务;商场;普通商场","060102","[]","下新村街与新科下村永和东街交叉口东南40米","113.294625","23.251206","113.28925109204185","23.253806413588915","[]","广东省","广州市","白云区"
"B0G04S706S","C13mall光之彩","购物服务;商场;普通商场|购物服务;超级市场;超市","060102|060400","[]","茶园南路15号","113.214225","23.392776","113.20886233263685","23.395354195126565","[]","广东省","广州市","花都区"
"B0FFM1FDGI","百花广场A座","购物服务;商场;普通商场|风景名胜;公园广场;城市广场|购物服务;超级市场;超市","060102|110105|060400","[]","新华街横谭村天贵路东百花广场自编B栋首、2、3层","113.223120","23.379713","113.2177677289391","23.382303336316102","[]","广东省","广州市","花都区"
"B0FFL05WAM","利涛购物中心(罗岗村农贸综合市场店)","购物服务;商场;购物中心|购物服务;商场;普通商场","060101|060102","[]","洞隐街2号罗岗村农贸综合市场2楼","113.271941","23.249096","113.26659722272953","23.2517236921654","[]","广东省","广州市","白云区"
"B0FFKCTDTA","元烽耀广场","购物服务;商场;普通商场","060102","[]","百寿路饮食风情街G栋(马鞍山公园地铁站C口步行50米)","113.238710","23.400196","113.23336632220516","23.40279369472212","[]","广东省","广州市","花都区"
"B0FFK51U95","小塘广场","购物服务;商场;普通商场","060102","[]","江高镇大田村学苑路一号广东白云学院西校区","113.210753","23.274670","113.20539395443086","23.277271461754196","[]","广东省","广州市","白云区"
"B0FFHLL41E","恒盛广场","购物服务;商场;普通商场","060102","[]","鹤龙三路与长红竹仔园荫海二横路交叉口西南120米","113.292217","23.259925","113.28684640405746","23.262526190943547","[]","广东省","广州市","白云区"
"B0FFH9ILVC","聚商广场","购物服务;商场;普通商场","060102","[]","清湖南路51号","113.270552","23.258549","113.26520886928881","23.261174806893113","[]","广东省","广州市","白云区"
"B0FFGFBP0J","上胜广场","购物服务;商场;普通商场|商务住宅;住宅区;住宅小区|商务住宅;产业园区;产业园区","060102|120302|120100","[]","嘉禾街道嘉禾望岗上胜东街","113.285370","23.234131","113.28001138802556","23.236749661604986","[]","广东省","广州市","白云区"
"B0FFFFK6A3","港航城","购物服务;商场;商场","060100","[]","建设路34号","113.207509","23.380229","113.20213840908961","23.38280044794807","[]","广东省","广州市","花都区"
"B001423HUS","平沙商贸广场","购物服务;商场;购物中心","060101","[]","平沙村松园中西街23号","113.258134","23.247670","113.25279986597452","23.250306009568202","[]","广东省","广州市","白云区"
"B00141TBI5","裕华购物商场(大朗分店)","购物服务;商场;普通商场","060102","[]","大朗社区大朗中路裕华购物商场大朗店","113.239524","23.238327","113.23419152394438","23.240965368870516","13535166669","广东省","广州市","白云区"
"B0FFICXO9M","双城荟D区","购物服务;商场;购物中心","060101","[]","新顺路与集慧街交叉口南200米","113.296505","23.229550","113.2911294121733","23.232154662574295","020-62181107","广东省","广州市","白云区"
"B0FFJ03JF5","人和大都汇商业广场","购物服务;商场;普通商场|商务住宅;楼宇;商务写字楼","060102|120201","[]","育英街2号(人和地铁站C2口步行240米)","113.297764","23.334097","113.29237916612627","23.33666954475824","020-86210833","广东省","广州市","白云区"
"B0IR5C1L11","龙归金铂广场","购物服务;商场;普通商场","060102","[]","龙归龙岗路1号","113.294690","23.267602","113.28931487397666","23.270197221525752","[]","广东省","广州市","白云区"
"B0H1T7JRG5","星汇广场","购物服务;商场;商场","060100","[]","大源中路与大源新村街交叉口北80米","113.353528","23.252383","113.3480398281314","23.254877483651825","18680536328","广东省","广州市","白云区"
"B0GKXAENWR","天美城","购物服务;商场;商场","060100","[]","全季酒店(广州白云机场店)新华街宝华路78号","113.229502","23.392643","113.2241540231499","23.395236541479964","[]","广东省","广州市","花都区"
"B0FFH0FOIA","利达广场","购物服务;商场;普通商场","060102","[]","夏花路江村段","113.229251","23.276924","113.22391067154754","23.279544409217877","020-86206666","广东省","广州市","白云区"
"B0FFGVX3N3","百业广场","购物服务;商场;普通商场","060102","[]","公益路与金丹一街交叉口西北100米","113.217353","23.400501","113.21199344277794","23.4030816668346","[]","广东省","广州市","花都区"
"B0FFG8FR2P","东铁美食购物广场","购物服务;商场;普通商场|购物服务;服装鞋帽皮具店;服装鞋帽皮具店","060102|061100","[]","新中路31号","113.207937","23.376601","113.20256725175038","23.37917372690204","020-36900088","广东省","广州市","花都区"
"B0FFFST2U7","金富盈购物商场(鳌头店)","购物服务;商场;普通商场","060102","[]","鳌头镇鳌头农贸市场","113.429003","23.621297","113.42346488025672","23.623722073245","020-87878189","广东省","广州市","从化区"
"B0FFFRS4YI","长红名店城","购物服务;商场;普通商场|购物服务;服装鞋帽皮具店;服装鞋帽皮具店","060102|061100","[]","长红长湴工业二路10号(广大汇超市旁)","113.300782","23.260984","113.29539682369312","23.26357174115064","[]","广东省","广州市","白云区"
"B0FFFFB57R","林安商贸城","购物服务;商场;普通商场","060102","[]","太和镇大源北路30号","113.357220","23.258297","113.35172511601104","23.26078364785615","020-62854863;13925113533","广东省","广州市","白云区"
"B0FFFAIHYQ","万大广场","购物服务;商场;普通商场","060102","[]","北中路与中花路交叉口","113.418824","23.424980","113.41328736889513","23.427396037061477","[]","广东省","广州市","花都区"
"B0FFF4KQYR","人和万事达广场","购物服务;商场;购物中心","060101","[]","西成路8号","113.295843","23.341574","113.29046093124849","23.344147772185785","[]","广东省","广州市","白云区"
"B0FFF48XH5","清湖商业广场","购物服务;商场;普通商场","060102","[]","清湖村大布路","113.275475","23.264032","113.27012663511458","23.26665191662737","[]","广东省","广州市","白云区"
"B0FFF437V6","名尚国际广场","购物服务;商场;普通商场","060102","[]","人和镇西城路","113.293210","23.342272","113.28783222671633","23.344849530378752","15814588474","广东省","广州市","白云区"
"B00141WU60","嘉禾名城","购物服务;商场;普通商场","060102","[]","鹤龙二路华安医疗","113.275800","23.231373","113.27045348830325","23.234003096641846","[]","广东省","广州市","白云区"
"B00141KBXF","丰兴商业广场","购物服务;商场;普通商场","060102","[]","106国道(嘉禾农贸市场斜对面)","113.275771","23.232167","113.27042446622447","23.23479685827814","[]","广东省","广州市","白云区"
"B0FFFAHY5L","惠佳商场(博爱路店)","购物服务;便民商店/便利店;便民商店/便利店|购物服务;商场;商场","060200|060100","[]","大岗镇谭州博爱路47号","113.390018","22.781469","113.38451901210924","22.78410803217403","[]","广东省","广州市","南沙区"
"B0FFGJ94YZ","达森购物广场","购物服务;商场;普通商场|商务住宅;商务住宅相关;商务住宅相关","060102|120000","[]","大岗镇兴业路31号","113.406178","22.802555","113.40067620314592","22.805183937204728","020-84932929;13719189955","广东省","广州市","南沙区"
"B00141KBTE","阳光城市广场","购物服务;商场;购物中心|商务住宅;住宅区;住宅小区","060101|120302","[]","大岗镇兴业路118号","113.400790","22.794721","113.39528780125057","22.797352368074716","[]","广东省","广州市","南沙区"
"B0FFIQCRMD","沃美百货","购物服务;商场;商场","060100","[]","潭州市场二楼之一","113.389034","22.784365","113.38353529506274","22.78700358633384","020-83777709","广东省","广州市","南沙区"
"B00141KANW","明兴商贸城","购物服务;商场;普通商场","060102","[]","大岗镇灵山村环城东路","113.411798","22.811879","113.4062980759964","22.814506316528124","13719089981","广东省","广州市","南沙区"
"B0GKHAYU9L","通用商场","购物服务;商场;普通商场","060102","[]","大岗镇庙贝村回味鸡旁","113.446570","22.791152","113.44112152669403","22.793828155422098","020-34998913","广东省","广州市","南沙区"
"B0FFIBPG1F","普盈新天地","购物服务;商场;普通商场","060102","[]","大岗镇兴业路23号","113.406220","22.804143","113.40071810835504","22.806771384592967","[]","广东省","广州市","南沙区"
"B0FFF2OY6C","桥畔商场","购物服务;商场;普通商场","060102","[]","兴业路与人民路交叉口北80米","113.411038","22.805971","113.40553804560743","22.808600112690318","[]","广东省","广州市","南沙区"
"B00140W3II","荔枝湾商贸城","购物服务;商场;普通商场","060102","[]","大岗镇潭大公路27号(近阳光城市广场)","113.399726","22.795570","113.3942237270814","22.798201164945677","[]","广东省","广州市","南沙区"
"B0I1Z7J5WU","海上明月万科里","购物服务;商场;商场","060100","[]","黄阁镇万科明月一街3号","113.488737","22.804022","113.4834120814094","22.806800918305964","[]","广东省","广州市","南沙区"
"B0H3DSP9KQ","壹加壹(豪福路店)","购物服务;商场;商场","060100","[]","豪福路与工业二路交叉口西北60米","113.404092","22.802870","113.39858965134978","22.80549855659939","[]","广东省","广州市","南沙区"
"B00141SHNG","佰畔商场","购物服务;商场;普通商场","060102","[]","人民路与兴业路交叉口东60米","113.411644","22.805357","113.4061444285797","22.807986577140902","[]","广东省","广州市","南沙区"
"B001423XIT","巨富百货","购物服务;商场;普通商场","060102","[]","进港大道4号华汇国际广场","113.556405","22.799520","113.55129451188493","22.80248088687184","[]","广东省","广州市","南沙区"
"B0FFF5IO7J","滨海隽城商业广场","购物服务;商场;商场","060100","[]","双山大道与环市大道中交汇处附近","113.535211","22.792481","113.53004422634217","22.795398076104064","[]","广东省","广州市","南沙区"
"B0FFFWKUF6","风信子南沙跨境商品直购体验中心(1期)","购物服务;商场;免税品店","060103","[]","双山大道与环市大道中交叉口东南140米","113.535217","22.792474","113.53005024494469","22.795391093624207","[]","广东省","广州市","南沙区"
"B0FFF3CU32","万达广场(南沙店)","购物服务;商场;购物中心","060101","[]","双山大道3号","113.532637","22.794645","113.52746220950566","22.79755475793097","020-39012888","广东省","广州市","南沙区"
"B0FFHZFCDQ","汇酒小镇(风信子跨境商城2期店)","购物服务;商场;商场|餐饮服务;餐饮相关场所;餐饮相关","060100|050000","[]","环市大道风信子二期A101","113.532670","22.777736","113.52749641923442","22.780651578968797","13302286378","广东省","广州市","南沙区"
"B0G1X7HGQ8","蝴蝶洲商场","购物服务;商场;普通商场","060102","[]","进港大道320号","113.562553","22.797548","113.55745591052694","22.800519920818694","020-23314111","广东省","广州市","南沙区"
"B00140WEX2","今洲新天地","购物服务;商场;普通商场","060102","[]","金洲金沙路","113.545443","22.801108","113.54030501331012","22.804046295981372","020-34682999","广东省","广州市","南沙区"
"B0FFJ8QWZW","万达广场南沙店购物中心","购物服务;商场;购物中心","060101","[]","双山大道3号万达广场(南沙店)","113.531452","22.794487","113.5262735352548","22.797393729565353","[]","广东省","广州市","南沙区"
"B0FFIIHWYJ","璐丰百货","购物服务;商场;普通商场","060102","[]","金洲村惠康街110-112号南沙新地广场","113.547035","22.802720","113.54190116421088","22.805661196416754","020-39004333;13559757688","广东省","广州市","南沙区"
"B0FFHWLUP4","滨海隽城商业广场B区","购物服务;商场;购物中心","060101","[]","双山大道越秀滨海隽城商业广场","113.534868","22.792572","113.52970018146263","22.79548817935287","[]","广东省","广州市","南沙区"
"B0FFG4DZMK","新地广场","购物服务;商场;普通商场","060102","[]","南沙街惠康街110-112号","113.547016","22.802725","113.54188211361894","22.80566615378412","020-34680655;020-39004333","广东省","广州市","南沙区"
"B0FFGZUSN5","南沙古格境界亲子广场","购物服务;商场;普通商场|购物服务;商场;购物中心|风景名胜;公园广场;城市广场|购物服务;特色商业街;特色商业街","060102|060101|110105|061000","[]","黄阁镇市南公路290号","113.526682","22.812566","113.52148716962272","22.815453598690755","18027227036","广东省","广州市","南沙区"
"B0FFHWLUP3","滨海隽城商业广场A区","购物服务;商场;购物中心","060101","[]","双山大道越秀滨海隽城商业广场(东侧)","113.536050","22.792373","113.53088576070019","22.795292216505867","[]","广东省","广州市","南沙区"
"B0IU25NVQL","南沙悠方天地F栋","购物服务;商场;普通商场","060102","[]","翠瑜街与柳园路交叉口西120米","113.521731","22.798165","113.51652084245019","22.801043952531746","[]","广东省","广州市","南沙区"
"B0FFKSKYUH","峰荟天地","购物服务;商场;普通商场","060102","[]","柳园路与翠瑜街交叉口南40米","113.522648","22.797565","113.5174409314434","22.80044674357349","[]","广东省","广州市","南沙区"
"B0G3SXYQVF","自贸区跨境购物免税店","购物服务;商场;商场","060100","[]","滨海隽城商业广场(金洲地铁站出入口步行470米)","113.534830","22.792412","113.52966207663755","22.795328138373787","[]","广东省","广州市","南沙区"
"B0FFFA1HJ2","南都淘金城","购物服务;商场;普通商场","060102","[]","裕兴街与裕和街交叉口西南50米","113.547803","22.801426","113.54267126956995","22.804369293283795","020-39099488","广东省","广州市","南沙区"
"B0G29LSXPF","南沙粤海钟楼广场","购物服务;商场;购物中心","060101","[]","江灵南路与潭州路交叉口西180米","113.514649","22.764023","113.50941709177941","22.766892989807154","[]","广东省","广州市","南沙区"
"B0FFIPRZZC","今洲广场","购物服务;商场;普通商场","060102","[]","进港大道与金沙路1号","113.544784","22.801143","113.53964422325663","22.804079823274215","[]","广东省","广州市","南沙区"
"B0FFHPPCS2","星河COCO Garden","购物服务;商场;普通商场","060102","[]","金沙路cocogo首层附近","113.544932","22.803799","113.53979245263484","22.8067352171977","[]","广东省","广州市","南沙区"
"B0FFHLDDDC","购物新天地(南沙碧桂园店)","购物服务;商场;购物中心","060101","[]","豪晴一街04号102","113.545238","22.788821","113.54010026080664","22.791763098199286","[]","广东省","广州市","南沙区"
"B0FFMHTAFR","南沙城成荟广场","购物服务;商场;商场","060100","[]","进港大道8号","113.538014","22.799299","113.532855144054","22.802220659030294","[]","广东省","广州市","南沙区"
"B0FFL34H9F","SANI(万达广场广州南沙店)","购物服务;商场;免税品店","060103","[]","双山大道3号万达广场南沙店F1","113.533203","22.794447","113.52802996947939","22.797358286361234","[]","广东省","广州市","南沙区"
"B0I3F9YEZ8","南沙建滔广场","购物服务;商场;普通商场","060102","[]","蕉明街与蕉西路交叉口西140米","113.527125","22.796650","113.52193264673828","22.799544434559774","15989277067","广东省","广州市","南沙区"
"B0FFL7729K","南沙悠方天地E栋","购物服务;商场;普通商场","060102","[]","柳园路叠翠峰","113.522309","22.797980","113.51710077855391","22.800860646230703","[]","广东省","广州市","南沙区"
"B0FFME5V8E","美洋优选(越秀滨海隽城商业广场店)","购物服务;商场;免税品店","060103","[]","南沙街道金洲社区双山大道23号越秀滨海隽城商业广场F1","113.535329","22.792542","113.53016257899985","22.795459352076833","[]","广东省","广州市","南沙区"
"B0FFJA1NO0","南沙悠方天地","购物服务;商场;普通商场","060102","[]","丰泽西路与蕉门路交叉口东","113.520608","22.798461","113.51539406828552","22.80133666714452","020-84981688;18664845651","广东省","广州市","南沙区"
"B0FFGYAXBP","风信子南沙跨境商品直购体验中心(1.5期)","购物服务;商场;商场","060100","[]","双山大道风信子1点5期(金洲地铁站出入口旁)","113.538973","22.791803","113.53381744249812","22.79472958386968","[]","广东省","广州市","南沙区"
"B0FFL2WCA3","BYD(广东欧亚特南沙专营店)","购物服务;商场;商场","060100","[]","进港大道奥园·中环广场","113.540051","22.799780","113.53489804378259","22.80270639748375","15975583587","广东省","广州市","南沙区"
"B0FFFA1NHV","嘉美百货(进港大道店)","购物服务;商场;普通商场","060102","[]","金洲农贸市场楼10号铺{锦记花生油}","113.547083","22.801441","113.54194937460439","22.8043827496427","[]","广东省","广州市","南沙区"
"B0IU25N14S","南沙悠方天地B栋","购物服务;商场;普通商场","060102","[]","翠瑜街与丰泽西路交叉口东200米","113.520447","22.798716","113.51523251145868","22.801591120146586","[]","广东省","广州市","南沙区"
"B0IU25N14R","南沙悠方天地C栋","购物服务;商场;普通商场","060102","[]","翠瑜街与柳园路交叉口西北200米","113.521095","22.798816","113.5158826758351","22.801692925810336","[]","广东省","广州市","南沙区"
"B0IU25N14T","南沙悠方天地A栋","购物服务;商场;普通商场","060102","[]","翠瑜街与丰泽西路交叉口东北100米","113.519467","22.798944","113.5142492001079","22.801816243647075","[]","广东省","广州市","南沙区"
"B0HB347QQL","COVER TREES(南沙城店)","购物服务;商场;免税品店","060103","[]","金岭一直街南沙城","113.538889","22.798215","113.53373277832318","22.801139160531378","[]","广东省","广州市","南沙区"
"B0IU25NVQM","南沙悠方天地D栋","购物服务;商场;普通商场","060102","[]","柳园路与翠瑜街交叉口西北120米","113.521942","22.798747","113.51673250719332","22.801626344826392","[]","广东省","广州市","南沙区"
"B0I3F1ZCK7","广东广州南沙区金洲万达广场","购物服务;商场;购物中心","060101","[]","环市大道中与双山大道交叉口北140米","113.534374","22.794367","113.52920456187663","22.79728130785551","[]","广东省","广州市","南沙区"
"B0FFIB810F","广州新塘万达广场","购物服务;商场;购物中心","060101","[]","新塘镇章陂工业大道西侧","113.617440","23.152185","113.61236214597278","23.155031065487126","020-66262226","广东省","广州市","增城区"
"B00140W7N5","金海岸城市广场","购物服务;商场;普通商场","060102","[]","新塘镇港口大道北路332号","113.602691","23.126956","113.59761690947533","23.129819721524555","020-82706008","广东省","广州市","增城区"
"B00140W28S","领好广场","购物服务;商场;购物中心","060101","[]","黄埔东路2889号","113.524997","23.085076","113.51977867487518","23.08784619795742","020-22051111","广东省","广州市","黄埔区"
"B0FFGTHADB","尚裤牛仔","购物服务;商场;普通商场","060102","[]","新塘镇广深大道10号","113.645795","23.119223","113.64069311839366","23.12204630779131","[]","广东省","广州市","增城区"
"B00141SCLQ","人人佳购物广场(南岗店)","购物服务;商场;购物中心","060101","[]","南岗路22号南岗新城F1(南岗地铁站B口步行100米)","113.541975","23.095026","113.53680812232123","23.097835432748997","020-82061689","广东省","广州市","黄埔区"
"B0FFI0RH6Z","新塘服装商贸城电商网络批发","购物服务;商场;普通商场","060102","[]","光华路与广深大道东交叉口西南60米","113.630710","23.120279","113.62562506870776","23.123123966663","[]","广东省","广州市","增城区"
"B00140N19F","新塘服装商贸城","购物服务;商场;普通商场","060102","[]","新塘镇光华路19号","113.631131","23.122122","113.62604555866851","23.124965684612864","[]","广东省","广州市","增城区"
"B0FFHFB74M","百事佳商业广场","购物服务;商场;普通商场","060102","[]","黄埔东路1598号(近领好广场)","113.526010","23.085255","113.5207949735713","23.088027909838274","020-82292338","广东省","广州市","黄埔区"
"B0FFH12574","三友广场","购物服务;商场;普通商场|商务住宅;楼宇;商务写字楼","060102|120201","[]","新塘大道西391号","113.581845","23.110297","113.57675827851394","23.11316236342799","[]","广东省","广州市","增城区"
"B00141J6K2","地王广场(解放北路)","购物服务;商场;普通商场|购物服务;商场;购物中心","060102|060101","[]","解放北路115号","113.615027","23.116859","113.60995242742885","23.119721030553343","020-82688938","广东省","广州市","增城区"
"B0G3KZOIJL","卓粤广场","购物服务;商场;普通商场","060102","[]","新塘镇新塘大道东90号","113.624868","23.113780","113.61978829816302","23.116634443819986","020-82882668","广东省","广州市","增城区"
"B00141K29U","信盈城(增城)","购物服务;商场;商场","060100","[]","新塘镇府前路,紧邻镇政府、新塘公园、新塘图书馆和文化活动中心广场","113.622999","23.115680","113.61792046344273","23.11853561239775","[]","广东省","广州市","增城区"
"B0FFFRZH24","万和百货(久裕店)","购物服务;商场;普通商场|购物服务;超级市场;超市","060102|060400","[]","新塘镇增城久裕商贸城b6栋佳诚商行","113.654212","23.122855","113.64909819454154","23.12566236153579","020-32915888","广东省","广州市","增城区"
"B00140MYFY","久裕商贸城","购物服务;商场;普通商场","060102","[]","久裕大道60号","113.654113","23.122966","113.64899933126048","23.125773493308888","[]","广东省","广州市","增城区"
"B0FFKDBVED","大东汇广场","购物服务;商场;普通商场","060102","[]","新塘镇新沙大道北80号","113.644710","23.127770","113.6396089669595","23.130591614313833","020-32168888","广东省","广州市","增城区"
"B0FFGX4WRS","摩丽多城","购物服务;商场;普通商场|购物服务;商场;购物中心","060102|060101","[]","新塘镇解放北路172号","113.613621","23.120951","113.60854661374155","23.123812333278853","020-82702209","广东省","广州市","增城区"
"B0FFGPQIPL","华购好又新(永和店)","购物服务;商场;商场","060100","[]","永宁街永胜北路","113.591944","23.179585","113.5868619236595","23.182427987948003","020-32982428;020-32982545","广东省","广州市","增城区"
"B0FFLJBOJ1","若比邻社区商业中心(保利·东江首府店)","购物服务;商场;普通商场","060102","[]","茅山大道保利·东江首府","113.635402","23.111299","113.63031301873993","23.114141401798246","[]","广东省","广州市","增城区"
"B0FFGP2HRC","汇太广场","购物服务;商场;购物中心","060101","[]","新塘镇汇太西路","113.601073","23.127502","113.59599853026315","23.130365789703852","020-82708983","广东省","广州市","增城区"
"B00141I4X7","百事佳亨晖广场","购物服务;商场;普通商场","060102","[]","开创大道230号","113.543146","23.109649","113.5379814405487","23.112455070874127","020-82269228;020-82376943","广东省","广州市","黄埔区"
"B001409283","万和百货(新塘店)","购物服务;商场;普通商场","060102","[]","新塘东坑四横路34号","113.610869","23.123445","113.60579510478011","23.12630699408553","020-82883663","广东省","广州市","增城区"
"B00141PSFK","逸富广场(广州店)","购物服务;商场;普通商场","060102","[]","广深大道西623号","113.551181","23.109441","113.54603770459526","23.112264387672273","020-82899200","广东省","广州市","增城区"
"B0FFFGZUZQ","汇赢商业广场","购物服务;商场;普通商场","060102","[]","宏光路123号","113.546983","23.109340","113.54182889777488","23.11215470478754","[]","广东省","广州市","黄埔区"
"B0FFGVFNBE","建益商业城","购物服务;商场;普通商场","060102","[]","沧头中路2号","113.554618","23.118450","113.54948246522237","23.121276362909995","[]","广东省","广州市","黄埔区"
"B0GRDMECTD","黄埔佳纷天地","购物服务;商场;商场","060100","[]","盛凯大街1、3、5、7号","113.548846","23.103729","113.54369714734342","23.106549968136036","020-82515097","广东省","广州市","黄埔区"
"B00141S946","广州市黄埔区南岗新城","购物服务;商场;普通商场","060102","[]","南岗路22号(南岗地铁站B口步行140米)","113.542079","23.094533","113.53691244846033","23.09734287914302","020-82251128","广东省","广州市","黄埔区"
"B00141K609","时代城","购物服务;商场;购物中心","060101","[]","荔联街宏明路263号","113.543415","23.111907","113.53825103945492","23.114712755716262","020-62952228","广东省","广州市","黄埔区"
"B0G12ULVT7","东进广场","购物服务;商场;商场","060100","[]","宁西街章陂村经济联合社创新大道旁","113.620060","23.157330","113.61498050285472","23.160171817801736","[]","广东省","广州市","增城区"
"B0IRZH3XMB","豪进广场21世纪房地产","购物服务;商场;普通商场","060102","[]","豪进广场21世纪不动产29号","113.591178","23.121099","113.58609923312717","23.123964652492045","19120921027","广东省","广州市","增城区"
"B0FFFWH64I","鹏泰百货(江濠购物广场)","购物服务;商场;普通商场|购物服务;超级市场;超市","060102|060400","[]","新塘镇西洲大道","113.580118","23.104898","113.57502957735912","23.107764286744786","[]","广东省","广州市","增城区"
"B0FFKPK0SR","永旺梦乐城(广州新塘购物中心)","购物服务;商场;购物中心","060101","[]","宁西街创新大道15号1栋","113.624600","23.159434","113.61951749465048","23.162270529831957","020-82968688","广东省","广州市","增城区"
"B0FFJA0FQY","广州增城合生汇","购物服务;商场;普通商场|购物服务;商场;购物中心","060102|060101","[]","新塘镇创想路8号","113.609271","23.148917","113.60419566918826","23.151769661064435","020-32890888","广东省","广州市","增城区"
"B0FFHG7U4D","诚信金源百货","购物服务;商场;普通商场","060102","[]","工业二路辉煌溜冰场(环村路)附近","113.641548","23.155807","113.6364490872683","23.158622522231234","13925806825","广东省","广州市","增城区"
"B00140SZ77","荔富广场","购物服务;商场;普通商场","060102","[]","沙埔大道8号(广州本田二厂对面)","113.655403","23.168119","113.65028446676907","23.170906387905475","020-82957228","广东省","广州市","增城区"
"B0GK7C25ST","智乐汇教育广场","购物服务;商场;普通商场","060102","[]","新塘大道中13号","113.616799","23.116087","113.61172379208249","23.118948015576613","[]","广东省","广州市","增城区"
"B0G3L1IZSD","大时代","购物服务;商场;普通商场","060102","[]","牛仔城一路2-1西北方向80米","113.633552","23.123721","113.62846411064203","23.126560868166912","020-82673888","广东省","广州市","增城区"
"B0G19MAK4Q","民兴广场","购物服务;商场;普通商场","060102","[]","新塘广深大道中118号","113.612621","23.122198","113.6075468061395","23.12505946943908","020-32912223","广东省","广州市","增城区"
"B0G0DN5SKN","源汇坊商业城","购物服务;商场;商场","060100","[]","白江村广深大道西97号(白江地铁站D2口步行110米)","113.595085","23.121652","113.5900086025792","23.124518233791683","[]","广东省","广州市","增城区"
"B0FFG9IPNL","星之岛广场","购物服务;商场;商场","060100","[]","新塘镇群星村港口大道339号","113.605327","23.125358","113.60025332255815","23.128221657619527","[]","广东省","广州市","增城区"
"B0FFKHGCAF","万达广场(广州南岗店)","购物服务;商场;购物中心","060101","[]","康富路16号","113.550561","23.098930","113.54541684220851","23.101756483690224","020-66377880","广东省","广州市","黄埔区"
"B0FFLM8V53","创联广场","购物服务;商场;普通商场","060102","[]","创业西路319号","113.656311","23.123659","113.651194057522","23.126462256393857","[]","广东省","广州市","增城区"
"B0FFHOL9PP","久裕商贸城B1栋","购物服务;商场;普通商场","060102","[]","久裕大道60号久裕商贸城","113.653204","23.121685","113.6480917316732","23.124494630001198","[]","广东省","广州市","增城区"
"B0FFGX5YZ5","丰乐广场","购物服务;商场;普通商场","060102","[]","新塘西洲大道126号","113.579954","23.108672","113.57486512737715","23.111536599836047","[]","广东省","广州市","增城区"
"B0FFFQZGNS","富民商业广场","购物服务;商场;普通商场","060102","[]","富华路与东坑五横路交叉口西南40米","113.609862","23.122897","113.60478830101718","23.125759752820848","13560074773","广东省","广州市","增城区"
"B0HKUDXIJ9","增城·永荟广场","购物服务;商场;商场","060100","[]","创新大道与新耀南路交叉口东北320米","113.624095","23.157092","113.61901300457932","23.15992996955179","[]","广东省","广州市","增城区"
"B0FFK271BE","鸿福门广场","购物服务;商场;普通商场","060102","[]","黄埔东路3927号(南岗地铁站C口步行160米)","113.542018","23.097078","113.5368511081051","23.099886678006083","020-31608220","广东省","广州市","黄埔区"
"B0FFKMIM2G","L·A中国","购物服务;商场;免税品店","060103","[]","大板工业区一街22号伟发高新科技园1号楼","113.329603","22.940362","113.32418252674836","22.943025048966113","[]","广东省","广州市","番禺区"
"B0IUN5D8IT","永燊广场","购物服务;商场;普通商场","060102","[]","市广路288号","113.338606","22.971514","113.33316515139549","22.97414670477314","[]","广东省","广州市","番禺区"
"B0FFM1AQMF","克洛家-私","购物服务;商场;免税品店","060103","[]","市广路290号广东省应急产业园广州五羊园区一栋3楼302","113.337068","22.972136","113.33163018901571","22.974771316576778","[]","广东省","广州市","番禺区"
"B0FFMH8IO0","广州海乐荟奥特莱斯","购物服务;商场;购物中心","060101","[]","禺山西路228号(海伦堡创意园北侧)","113.341762","22.939820","113.33631705623147","22.942460395937964","020-31166186;020-31166323","广东省","广州市","番禺区"
"B0HKP5ATHA","祈福名家二街欧式广场(祈福缤纷世界店)","购物服务;商场;普通商场","060102","[]","祈福缤纷汇","113.332491","22.970168","113.32706260088277","22.97281281858962","[]","广东省","广州市","番禺区"
"B0FFHD4VKE","金园广场","购物服务;商场;购物中心","060101","[]","金山谷东艺路103号","113.343178","22.976163","113.33772783758079","22.97878527249808","[]","广东省","广州市","番禺区"
"B0FFG9J2M0","金谷生活馆54","购物服务;商场;商场","060100","[]","东艺路与市广路交汇处","113.342184","22.970294","113.33673616911244","22.972920611589114","[]","广东省","广州市","番禺区"
"B00141JND7","润泰百货(小罗店)","购物服务;商场;普通商场","060102","[]","沙头街小罗村工业二街14号","113.345678","22.966343","113.3402237024269","22.968964982685467","020-84807312","广东省","广州市","番禺区"
"B00141JM3Q","沙头购物广场","购物服务;商场;购物中心","060101","[]","捷进西路41号","113.350708","22.946881","113.34524568514342","22.94950249712561","[]","广东省","广州市","番禺区"
"B0FFG6RX29","海伦&购物公园","购物服务;商场;普通商场","060102","[]","福德路149号","113.351653","22.925131","113.34619045949668","22.927760078401402","[]","广东省","广州市","番禺区"
"B0IG6RHLO1","Hi5C区","购物服务;商场;普通商场","060102","[]","汉兴西街与汉兴二街交叉口东南160米","113.333716","22.991621","113.32828365327903","22.9942542471407","[]","广东省","广州市","番禺区"
"B0FFH8147M","百世广场","购物服务;商场;普通商场|购物服务;家居建材市场;家居建材市场","060102|060600","[]","大石街道南大路自编2号","113.336478","23.010518","113.3310387786342","23.01313786093362","020-34891666","广东省","广州市","番禺区"
"B00141JOAF","西丽广场","购物服务;商场;普通商场","060102","[]","市桥街西丽南路93号","113.354448","22.937249","113.34897972565273","22.93986832040231","020-84830188","广东省","广州市","番禺区"
"B0FFFGUP31","海印·又一城","购物服务;商场;购物中心","060101","[]","番禺大道北383号","113.349172","22.998902","113.34370895773469","23.001503792570954","020-22911111;020-22911801","广东省","广州市","番禺区"
"B00141S1LZ","沙园广场","购物服务;商场;商场","060100","[]","市桥街环城东路196号","113.371357","22.937970","113.36586343658361","22.940564788653255","18011851159","广东省","广州市","番禺区"
"B0G0ZUY16E","金山商业广场","购物服务;商场;普通商场","060102","[]","南村镇番禺大道北670号","113.352761","22.987341","113.3472922716986","22.989941670253486","020-34698999","广东省","广州市","番禺区"
"B0FFHWM5JS","番禺友谊商店","购物服务;商场;普通商场|购物服务;便民商店/便利店;便民商店/便利店","060102|060200","[]","市桥繁华路62号","113.362598","22.942191","113.35711616767256","22.944795617978563","[]","广东省","广州市","番禺区"
"B00141IA86","斯高广场","购物服务;商场;普通商场","060102","[]","番禺大道北万博中心(南村万博地铁站D口步行480米)","113.342279","23.009196","113.33682834751728","23.011805652378655","[]","广东省","广州市","番禺区"
"B00140W2G9","繁华盛世","购物服务;商场;购物中心","060101","[]","繁华路90号","113.359739","22.942535","113.35426158017047","22.94514371749075","[]","广东省","广州市","番禺区"
"B00140VAJG","大石城","购物服务;商场;普通商场","060102","[]","朝阳西路31号","113.309393","23.024574","113.30400772070584","23.027238578218096","020-22868181","广东省","广州市","番禺区"
"B00141R03W","番山城","购物服务;商场;购物中心","060101","[]","市桥繁华路4号","113.365610","22.942125","113.3601237601723","22.944725403743124","020-39998338","广东省","广州市","番禺区"
"B0HBLUCPNK","润德大厦","购物服务;商场;普通商场|商务住宅;商务住宅相关;商务住宅相关","060102|120000","[]","大石街道石北工业路419号","113.288929","23.012694","113.28358013622751","23.015396066066604","020-84502337","广东省","广州市","番禺区"
"B0FFJ2QDUH","雅居乐·邻里时光","购物服务;商场;普通商场","060102","[]","光明北路281号(星海中学对面)","113.361348","22.951963","113.35586741471955","22.95456529240078","020-39121888","广东省","广州市","番禺区"
"B0GDVX6LQL","丹山新村商贸城","购物服务;商场;商场","060100","[]","新村大街14号","113.354121","22.953883","113.34865216321842","22.956495788386885","[]","广东省","广州市","番禺区"
"B0FFF9Z3Z1","新力潮荟购物广场","购物服务;商场;普通商场","060102","[]","市桥繁华路1号友谊中心","113.365832","22.941516","113.36034548749994","22.944116359171","[]","广东省","广州市","番禺区"
"B0FFFAESOU","科宝商城","购物服务;商场;商场","060100","[]","大石街朝阳东路186号","113.327290","23.025884","113.32186850595542","23.02851469137121","020-84786688","广东省","广州市","番禺区"
"B00141KFWK","奥园广场(福德路店)","购物服务;商场;购物中心","060101","[]","福德路281号","113.358446","22.924305","113.35297189776828","22.92692339155464","020-39176888;020-39180376","广东省","广州市","番禺区"
"B0HD161NJP","建华汇商业中心","购物服务;商场;商场","060100","[]","大石建华路9号","113.315450","23.024712","113.310052759055","23.02736553939045","020-39236288","广东省","广州市","番禺区"
"B00141JOS2","西门町购物天地","购物服务;商场;普通商场","060102","[]","南郊路18号西门","113.363473","22.927894","113.35799082844606","22.930503397091556","[]","广东省","广州市","番禺区"
"B0FFG6TNAF","上轩广场","商务住宅;楼宇;商住两用楼宇|购物服务;商场;商场","120203|060100","[]","市桥街富都城捷进中路3号","113.368531","22.950484","113.36304018709518","22.953076978062843","[]","广东省","广州市","番禺区"
"B0FFF05886","奥园广场2期","购物服务;商场;购物中心","060101","[]","乐活一街与南华路交叉口西南150米奥园广场","113.357770","22.924600","113.35229698316951","22.92721932158087","[]","广东省","广州市","番禺区"
"B0I6NCDHMS","万民超市","购物服务;商场;普通商场|购物服务;超级市场;超市","060102|060400","[]","大石街105国道561号","113.314514","23.013301","113.30911940182162","23.01596119168284","020-22113999","广东省","广州市","番禺区"
"B00141PRVS","港润购物广场","购物服务;商场;购物中心","060101","[]","富山北路","113.327162","23.025127","113.32174082053103","23.027758262363243","[]","广东省","广州市","番禺区"
"B00140NPEH","新大新百货(番禺店)","购物服务;商场;购物中心|购物服务;商场;普通商场","060101|060102","[]","易发商业街东宝中心新大新一到三层","113.362989","22.940875","113.35750666878178","22.94347961154787","020-84887883","广东省","广州市","番禺区"
"B00140V160","钻汇广场","购物服务;商场;购物中心","060101","[]","市桥街富华西路2号百越广场(市桥地铁站C口旁)","113.362630","22.947813","113.35714773746311","22.950415183040803","020-66624687;020-66821868","广东省","广州市","番禺区"
"B0FFKR23Y3","Safari","购物服务;商场;免税品店","060103","[]","汉溪大道东299号长隆野生动物世界内(东南角)","113.317582","23.000993","113.31218206149","23.003652828514983","020-84783333","广东省","广州市","番禺区"
"B0FFFVB20E","喜悦天地","购物服务;商场;购物中心","060101","[]","光明北路223号(市桥地铁站C口步行160米)","113.361347","22.947691","113.35586670644473","22.95029511370877","020-66821868","广东省","广州市","番禺区"
"B0014243OC","金科广场","购物服务;商场;购物中心","060101","[]","大石街南大公路136号金科广场首层L1002-L1003","113.325021","23.010045","113.31960524498083","23.012686860991078","020-84786823;020-84790388","广东省","广州市","番禺区"
"B0FFFAII7J","天汇百汇","购物服务;商场;普通商场|购物服务;超级市场;超市","060102|060400","[]","沙湾大道125号","113.347070","22.904865","113.34161723451665","22.9075104386741","020-34877877","广东省","广州市","番禺区"
"B0FFGVI10A","金海马商城","购物服务;商场;普通商场","060102","[]","南村镇番禺大道锦绣香江花园","113.344097","23.002122","113.33864330209816","23.004731401751286","[]","广东省","广州市","番禺区"
"B0HGOAVYS5","万民城MO CITY(番禺店)","购物服务;商场;商场","060100","[]","G105与石北工业路交叉口东南","113.313287","23.012961","113.30789486731453","23.015623584902336","020-37330996;020-37850096","广东省","广州市","番禺区"
"B0FFG3OGL8","逸臣商场(广州南站)","购物服务;商场;普通商场|购物服务;便民商店/便利店;便民商店/便利店","060102|060200","[]","石壁街道石兴大道南广州南站F3层","113.268254","22.988760","113.26293094538885","22.991493698491567","[]","广东省","广州市","番禺区"
"B00141R4ST","西丽·豪璟商业城","购物服务;商场;普通商场","060102","[]","市桥街西丽南路99号","113.354326","22.936650","113.34885797702432","22.939269773632354","[]","广东省","广州市","番禺区"
"B0FFGMCFY7","锐豪·新天地","购物服务;商场;普通商场|餐饮服务;餐饮相关场所;餐饮相关","060102|050000","[]","市桥繁华路乐华街27号","113.359717","22.943135","113.35423957446353","22.94574349634264","[]","广东省","广州市","番禺区"
"B0FFHU6XNK","万仓隆超市","购物服务;商场;普通商场","060102","[]","大涌路56号天和百货F2层","113.314665","23.021466","113.30926954985213","23.024122387192204","020-34892212;020-34892288","广东省","广州市","番禺区"
"B0G21Y6RY9","时代·芳华里CR8","购物服务;商场;购物中心","060101","[]","汉溪大道东182号汉溪长隆地铁站G出口","113.332073","22.994848","113.32664378683747","22.997482975597556","[]","广东省","广州市","番禺区"
"B0FFI08R1Q","西丽汇广场","购物服务;商场;商场","060100","[]","西丽园22街内肉菜市场2楼","113.355101","22.931954","113.34963196254209","22.93457449037121","[]","广东省","广州市","番禺区"
"B0FFGDOC0R","仁发广场","购物服务;商场;购物中心","060101","[]","兴业大道仁发广场","113.348405","22.990161","113.34294396722699","22.99276790412895","020-39217878","广东省","广州市","番禺区"
"B00141JN6B","三和广场","购物服务;专卖店;珠宝首饰工艺品|购物服务;商场;普通商场","061202|060102","[]","银平路1号","113.353693","22.959220","113.34822454537131","22.96183121309475","020-39226698","广东省","广州市","番禺区"
"B0FFK8WT5Z","华贵购物中心","购物服务;商场;普通商场|购物服务;超级市场;超市|购物服务;服装鞋帽皮具店;服装鞋帽皮具店","060102|060400|061100","[]","华贵大道与富石路交叉口西南120米","113.310703","23.022694","113.30531530000023","23.025357053757368","[]","广东省","广州市","番禺区"
"B00141UDKH","荔园新天地","购物服务;商场;购物中心","060101","[]","西环路1520号","113.345584","22.919679","113.34013303987166","22.92232093691292","020-34737666;020-84888927","广东省","广州市","番禺区"
"B00141JQI7","海印又一城奥特莱斯广场","购物服务;商场;购物中心","060101","[]","番禺大道北383号","113.349108","22.998859","113.34364507840286","23.001460922233584","020-22911111;020-22911801","广东省","广州市","番禺区"
"B0H6YZ9C3F","新兴广场活力商务区","购物服务;商场;普通商场","060102","[]","钟顺路与石南路交叉口北100米","113.308899","23.009904","113.30351566254471","23.012575789312553","[]","广东省","广州市","番禺区"
"B00141J44D","龙泉大酒店&商城","购物服务;商场;普通商场","060102","[]","市桥大北路99号","113.365714","22.940898","113.3602276962323","22.94349878195287","020-84826288","广东省","广州市","番禺区"
"B0G0VGJ1BJ","粤海广场","购物服务;商场;商场","060100","[]","南村万博地铁站B口步行60米","113.348383","23.003671","113.34292109101654","23.00627210542404","020-22911898","广东省","广州市","番禺区"
"B0G0VGJ1BJ","粤海广场","购物服务;商场;商场","060100","[]","南村万博地铁站B口步行60米","113.348383","23.003671","113.34292109101654","23.00627210542404","020-22911898","广东省","广州市","番禺区"
"B0FFFA6USQ","海印又一城B座","购物服务;商场;购物中心","060101","[]","番禺大道北383号","113.348527","22.999800","113.34306508701505","23.002402527009426","[]","广东省","广州市","番禺区"
"B0FFI8NBG3","小米之家(广州番禺建华汇专卖店)","购物服务;商场;购物中心","060101","[]","建华汇商业中心B区首层128-131号铺小米之家","113.316414","23.024449","113.31101483861224","23.027100868088624","15920147251;18922245406","广东省","广州市","番禺区"
"B0FFMFF04R","奥园国际中心·购物中心","购物服务;商场;购物中心","060101","[]","汇智三路与万博二路交叉口西140米","113.346170","23.007427","113.34071198315931","23.01003038729603","[]","广东省","广州市","番禺区"
"B0FFF8PI45","105新地娱乐美食购物广场","购物服务;商场;购物中心","060101","[]","105国道大石段474-480号","113.311888","23.020839","113.30649810141988","23.023500721943762","[]","广东省","广州市","番禺区"
"B00140V6AN","金佳活力城","购物服务;商场;购物中心","060101","[]","市桥大北路延长东涌路92-94号","113.367437","22.935279","113.36194868795454","22.937879850817662","020-84822113","广东省","广州市","番禺区"
"B0GK91SR4B","潮荟apm","购物服务;商场;普通商场","060102","[]","大北路与易发东街交叉口北20米","113.365940","22.941534","113.36045333405855","22.944134204713222","[]","广东省","广州市","番禺区"
"B0FFGW645C","奥园广场国际级时尚购物中心","购物服务;商场;购物中心","060101","[]","福德路281号奥园广场2层244-1号商铺","113.358024","22.924629","113.35255056445466","22.927247912299247","020-39180376","广东省","广州市","番禺区"
"B0FFL2XKEI","鸿禧华庭商场","购物服务;商场;普通商场","060102","[]","光明北路281号鸿禧商场4楼","113.361285","22.952033","113.3558045074687","22.954635355880026","[]","广东省","广州市","番禺区"
"B0HRDKUAJL","新大新番禺易发商厦","购物服务;商场;商场","060100","[]","光明北路32号","113.362323","22.941284","113.3568416457286","22.94388940195938","[]","广东省","广州市","番禺区"
"B0GRN578OL","番禺天河城","购物服务;商场;购物中心","060101","[]","汉溪大道东366号(南村万博地铁站A口步行110米)","113.348421","23.003598","113.34295902552883","23.006199070571334","020-85590668","广东省","广州市","番禺区"
"B0FFHJAT6F","天河城百货(万博店)","购物服务;商场;普通商场","060102","[]","迎宾路万博中心内","113.341563","23.009036","113.33611375922406","23.011647034856267","020-39950096","广东省","广州市","番禺区"
"B0FFFZZMIX","万博中心","购物服务;商场;购物中心","060101","[]","番禺大道迎宾路(南村万博地铁站D口步行210米)","113.342838","23.008157","113.33738632906937","23.010766080086754","020-34766388","广东省","广州市","番禺区"
"B0FFG7BJ81","潮联广场","商务住宅;楼宇;商务写字楼|购物服务;商场;普通商场","120201|060102","[]","黄编村大北路438号","113.370778","22.950837","113.36528427666413","22.953427021741447","13710111188","广东省","广州市","番禺区"
"B00140V15E","壹号潮流","购物服务;商场;普通商场","060102","[]","市桥街东涌路118号信联大厦1楼","113.366804","22.936206","113.36131649186578","22.938807297419388","13560084097","广东省","广州市","番禺区"
"B00141JKC4","万达广场(广州番禺店)","购物服务;商场;购物中心","060101","[]","汉溪大道386号(南村万博地铁站B口步行120米)","113.348981","23.007436","113.34351772991027","23.010034435649626","020-22938988","广东省","广州市","番禺区"
"B0HD3CQVZZ","万达广场-19八3TOYS","购物服务;商场;商场","060100","[]","兴南大道368号万达广场F1","113.349190","23.007126","113.34372636619695","23.00972420671406","[]","广东省","广州市","番禺区"
"B0FFM8XRCK","北万博商业中心","购物服务;商场;商场","060100","[]","番禺大道北万博中心(南村万博地铁站D口步行340米)","113.341685","23.007567","113.33623561966232","23.010178445642865","[]","广东省","广州市","番禺区"
"B0GDJS3P47","南尊广场","购物服务;商场;普通商场","060102","[]","296省道石北工业路(会江地铁站A口步行60米)","113.287349","23.012024","113.28200251186058","23.014728445119086","[]","广东省","广州市","番禺区"
"B0GK1CZAN7","上关商贸城","购物服务;商场;普通商场","060102","[]","坑口路与上关新街一巷交叉口西北40米","113.370316","22.944865","113.36482326212652","22.9474581273628","[]","广东省","广州市","番禺区"
"B0HRV7SUNR","TOPTOY亚洲潮玩集合(万达广场店)","购物服务;商场;商场","060100","[]","汉溪大道386号万达广场广州番禺店F1","113.349212","23.007135","113.34374832513262","23.00973316466201","[]","广东省","广州市","番禺区"
"B0FFFZY1QN","淘宝城C座","购物服务;商场;普通商场","060102","[]","海傍路与市桥东涌路交叉口南120米","113.367031","22.931211","113.36154351888489","22.93381410280187","[]","广东省","广州市","番禺区"
"B0ID6NSFL3","极客谷·富都","购物服务;商场;普通商场","060102","[]","捷进中路与市桥白云路交叉口西南60米","113.366974","22.950699","113.36148527260532","22.953293919472962","[]","广东省","广州市","番禺区"
"B0FFFSM28J","嘉乐源百货","购物服务;商场;普通商场","060102","[]","南浦综合市场","113.278701","23.045517","113.27336369046952","23.048217158697373","[]","广东省","广州市","番禺区"
"B0FFIRULEQ","诺德天街","购物服务;商场;普通商场|购物服务;特色商业街;步行街|地名地址信息;地名地址信息;地名地址信息","060102|061001|190000","[]","万博商业区汉溪大道万达广场北100米","113.352236","23.009845","113.34676667259194","23.012436827092312","[]","广东省","广州市","番禺区"
"B0FFK54ANU","海伦&购物公园","购物服务;商场;普通商场","060102","[]","市桥南龙岐路74号","113.351524","22.923800","113.34606178049081","22.926429854586367","[]","广东省","广州市","番禺区"
"B0GDLBGZ0D","富都商场-南区","购物服务;商场;商场","060100","[]","捷进中路富都商场","113.367508","22.950609","113.3620185494179","22.95320325255967","[]","广东省","广州市","番禺区"
"B0HD3OROD9","万达广场(广州番禺店)-番禹万达广场微型消防站","购物服务;商场;商场","060100","[]","新南大道368号万达广场F1","113.349319","23.007096","113.34385513116474","23.00969399602855","4009506611","广东省","广州市","番禺区"
"B0FFHPP69X","华兴淘宝楼","购物服务;商场;普通商场","060102","[]","珠坑村溪昌路12号","113.367655","22.956804","113.36216492898016","22.95939541567786","[]","广东省","广州市","番禺区"
"B0FFF9D3AO","东晖广场","购物服务;商场;普通商场","060102","[]","迎宾路大石段216号","113.334970","23.016274","113.32953343734187","23.0188942185079","[]","广东省","广州市","番禺区"
"B0FFM8LL70","金瑞鸿广场","购物服务;商场;商场","060100","[]","大石街道涌口村迎宾路312号","113.330570","23.023525","113.32514192487983","23.026150448417624","13022010900","广东省","广州市","番禺区"
"B0FFJY1EFF","天河城奥特莱斯(万博店)","购物服务;商场;商场","060100","[]","番禺大道北万博中心F1","113.341829","23.009046","113.33637923733195","23.011656541974705","020-39950096","广东省","广州市","番禺区"
"B0FFM5J4CQ","奥园城市天地5C区","购物服务;商场;普通商场|商务住宅;商务住宅相关;商务住宅相关","060102|120000","[]","汉兴二街与汉兴西路交叉口东南160米","113.333684","22.991667","113.32825171530247","22.99430028798463","[]","广东省","广州市","番禺区"
"B0FFF9P21Q","好邻居百货(陈涌店)","购物服务;商场;普通商场","060102","[]","陈涌市场二层","113.369510","22.917912","113.36402012234238","22.920517477363003","[]","广东省","广州市","番禺区"
"B00141IM01","泰成状元坊地下商场","购物服务;商场;普通商场","060102","[]","大东路35号","113.366112","22.936808","113.36062541355358","22.939409972503654","[]","广东省","广州市","番禺区"
"B0FFIK181S","奥买家","购物服务;商场;普通商场|购物服务;个人用品/化妆品店;其它个人用品店","060102|061400","[]","桥南街福德路281号奥园广场二楼244-01档","113.357017","22.924002","113.35154526897638","22.926622758030295","020-31440525;4009313883","广东省","广州市","番禺区"
"B00140U54M","番禺友谊商店西座","购物服务;商场;普通商场","060102","[]","繁华路62号","113.361888","22.942230","113.35640724475958","22.944835636494943","020-84879648","广东省","广州市","番禺区"
"B00141JTRA","富丽城购物广场","购物服务;商场;普通商场","060102","[]","大石段257-259号","113.311169","23.026189","113.3057801529502","23.028849709008824","[]","广东省","广州市","番禺区"
"B00141JTAN","扬帆广场","购物服务;商场;普通商场","060102","[]","沙湾镇大巷涌路94号之六","113.337533","22.900518","113.33209909325184","22.903182650344178","[]","广东省","广州市","番禺区"
"B0FFG74F2U","奥园广场1期","购物服务;商场;商场","060100","[]","南华路与乐活一街交叉口西南140米","113.358122","22.924170","113.35264843523998","22.926788951813162","[]","广东省","广州市","番禺区"
"B0FFFGNT5B","百德商业中心","购物服务;商场;普通商场|购物服务;商场;购物中心","060102|060101","[]","市桥工业路128号(中医院对面)","113.369145","22.936870","113.36365430692736","22.939467975523474","020-84702232;020-84702233","广东省","广州市","番禺区"
"B0FFF3UUGY","禺山广场","购物服务;商场;购物中心","060101","[]","桥大北路102号","113.366341","22.939593","113.36085390404845","22.94219348495737","[]","广东省","广州市","番禺区"
"B0FFJNDY7F","海印又一城C座","购物服务;商场;购物中心","060101","[]","番禺大道北383号","113.349965","22.997965","113.34450056895209","23.00056582678804","[]","广东省","广州市","番禺区"
"B0FFG59UVQ","好又多购物广场","购物服务;商场;购物中心","060101","[]","大涌路195号","113.319822","23.023272","113.31441600800687","23.025918003385698","020-31003389;13632398522","广东省","广州市","番禺区"
"B0FFJ7W93T","奥特莱斯","购物服务;商场;商场","060100","[]","南村镇番禺大道北万博中心天河城","113.341904","23.008808","113.33645410667799","23.01141850723155","[]","广东省","广州市","番禺区"
"B0FFHBX43M","江南商业城","购物服务;商场;普通商场","060102","[]","长堤西路与市桥工业路辅路交叉口西40米","113.368022","22.933078","113.36253304808895","22.935679015411885","[]","广东省","广州市","番禺区"
"B0IRGADJ62","海印又一城A座","购物服务;商场;购物中心","060101","[]","番禺大道北383号海印又一城","113.349132","22.998900","113.34366903145433","23.001501862852354","[]","广东省","广州市","番禺区"
"B0HBRP518S","iis:land(四海城店)","购物服务;商场;免税品店","060103","[]","汉溪大道东390号四海城商业广场LG1层22-25号(唐宁书店楼下)","113.352203","23.006269","113.34673397426451","23.008862428290414","[]","广东省","广州市","番禺区"
"B00141JMK7","FREE BIRD","购物服务;商场;普通商场|公司企业;公司;公司","060102|170200","[]","市桥迎宾路东升工业区1号","113.368893","22.967861","113.36340052812501","22.97044608071985","[]","广东省","广州市","番禺区"
"B00140MJJW","天河城百货","购物服务;商场;购物中心","060101","[]","番禺大道北","113.342281","23.009194","113.3368303437494","23.011803649582493","020-39950096;020-39950099","广东省","广州市","番禺区"
"B0FFI3IF25","万泓广场","购物服务;商场;普通商场","060102","[]","南村镇官堂村南路3号","113.350482","23.013016","113.3450156063448","23.015609433601767","[]","广东省","广州市","番禺区"
"B0FFI7JM06","天汇百汇(大石店)","购物服务;商场;普通商场","060102","[]","朝阳西路29号大石城2-3层A","113.309305","23.024503","113.30391989575969","23.02716776491327","020-34894388","广东省","广州市","番禺区"
"B0FFI6RFEE","汇南广场西区","购物服务;商场;普通商场","060102","[]","南桂路与浦华路交叉口北120米","113.291929","23.031470","113.28657426035703","23.034159809440684","[]","广东省","广州市","番禺区"
"B0FFLGXKI1","B10(荔园新天地店)","购物服务;商场;普通商场","060102","[]","西环路1520号荔园新天地F1","113.346349","22.920000","113.34089656834095","22.922640438251765","[]","广东省","广州市","番禺区"
"B0IGHZBYEU","诺德天街北区","购物服务;商场;普通商场|购物服务;特色商业街;特色商业街","060102|061000","[]","汇智一路与万博四路交叉口东南40米","113.351866","23.010412","113.3463972929797","23.013004205348434","[]","广东省","广州市","番禺区"
"B0FFLP4SI3","盛胜广场","购物服务;商场;普通商场","060102","[]","郭家坊街与大涌路交叉口西北40米","113.320253","23.023548","113.31484611013195","23.02619307233879","[]","广东省","广州市","番禺区"
"B0FFG9J3TX","丽の都(天河城百货店)","购物服务;商场;普通商场","060102","[]","万博中心商业街10号天河城百货F2","113.341775","23.009562","113.33632530807888","23.01217241806586","[]","广东省","广州市","番禺区"
"B0IBMSK2JK","佳创盛汇","购物服务;商场;商场","060100","[]","汉溪大道东与番禺大道北辅路交叉口东北80米","113.345190","23.003723","113.3397340976352","23.00632974045467","[]","广东省","广州市","番禺区"
"B0IA3ODGZN","九鸿世纪广场(东城店)","购物服务;商场;商场","060100","[]","市桥街环城东路152号二层","113.371383","22.935708","113.36588955856652","22.938303713870084","[]","广东省","广州市","番禺区"
"B0FFHDOLAM","槑YOYO(万达广场广州番禺店)","购物服务;商场;商场","060100","[]","南村镇兴南大道368号万达三楼槑YOYO零食店","113.349748","23.007461","113.34428332029516","23.010058096470804","13929704007","广东省","广州市","番禺区"
"B0I65RBXJA","奥园广场福德路店塔楼1栋","购物服务;商场;普通商场","060102","[]","德贤路辅路与南华路交叉口东南120米","113.356966","22.924342","113.3514943307874","22.926962696356853","[]","广东省","广州市","番禺区"
"B0GK5A9YES","vifa","购物服务;商场;免税品店","060103","[]","河村工业二路与南大路交叉口东南340米","113.336120","23.008932","113.33068160810586","23.011553220550578","[]","广东省","广州市","番禺区"
"B0FFM5G1MX","欧莱斯名牌折扣店B3座","购物服务;商场;普通商场","060102","[]","南村镇迎宾路万博中心天河城欧莱斯名牌折扣店b3座","113.341290","23.007916","113.33584137103259","23.010528021155636","[]","广东省","广州市","番禺区"
"B00141IDTE","禺山购物中心","购物服务;商场;购物中心","060101","[]","市桥大北路104-110号","113.366525","22.940583","113.36103758066064","22.94318281826462","020-84834888","广东省","广州市","番禺区"
"B0ID77L4M0","右巢PARK","购物服务;商场;商场","060100","[]","西环路1522号","113.345883","22.918089","113.34043157959599","22.92073106591498","[]","广东省","广州市","番禺区"
"B0FFIKP5W3","D1","购物服务;商场;普通商场","060102","[]","建华路与大山建华北路二巷交叉口南60米","113.315870","23.023440","113.31047200140968","23.026093311822667","[]","广东省","广州市","番禺区"
"B0FFG0R9YC","伟荣商业广场","购物服务;商场;普通商场","060102","[]","南村镇官塘村双桂路38号","113.349388","23.014703","113.34392348777132","23.017297588805633","[]","广东省","广州市","番禺区"
"B0IB27RR2Y","银灏时尚城","购物服务;商场;普通商场","060102","[]","群贤路与景华南路交叉口西100米","113.317555","23.018639","113.3121539263719","23.021291253160165","[]","广东省","广州市","番禺区"
"B0HG0AXW6R","天珂城","购物服务;商场;商场","060100","[]","番禺大道北万博中心(西北角)","113.341871","23.008830","113.33642116976577","23.01144055826515","[]","广东省","广州市","番禺区"
"B0FFG8GYGK","a0专柜","购物服务;商场;免税品店","060103","[]","市桥镇禺山大道2-24号(苏宁电器3楼)","113.365691","22.940413","113.36020476174019","22.94301401887481","[]","广东省","广州市","番禺区"
"B0HGKPGD2N","仟佰汇","购物服务;商场;普通商场","060102","[]","官堂镇南路与兴南大道交叉口北100米","113.351101","23.013217","113.34563347395358","23.01580928980673","[]","广东省","广州市","番禺区"
"B0FFGL1ENQ","兴发商业城","购物服务;商场;普通商场","060102","[]","桔树大道b65号","113.296362","23.028843","113.2910001864733","23.031527390502834","[]","广东省","广州市","番禺区"
"B0FFFW4CWV","渔人码头","购物服务;商场;普通商场","060102","[]","新虹路","113.304210","23.030698","113.29883413415777","23.03336892417528","020-39980888","广东省","广州市","番禺区"
"B0FFGS6UV7","岭南购物城","购物服务;商场;购物中心","060101","[]","健康路21号(厦滘地铁站A口步行370米)","113.317009","23.038471","113.31160769226814","23.041115720170016","020-39989111","广东省","广州市","番禺区"
"B0H6DZ7JB2","广晟万博城·晟荟潮流商业MALL(广晟·万博城店)","购物服务;商场;购物中心","060101","[]","万博二路与汉溪大道东交叉口东120米","113.349883","23.004883","113.34441824877294","23.007480978030422","[]","广东省","广州市","番禺区"
"B0H33RX2XZ","严选游(广州番禺天骄时代城店)","购物服务;商场;免税品店","060103","[]","广州番禺大石新置路100号丽枫酒店506室","113.327190","23.015534","113.32176941145968","23.018169351256116","18566335725","广东省","广州市","番禺区"
"B0H6GC0E3D","越秀·悦汇时光","购物服务;商场;普通商场","060102","[]","逸祥大街1号","113.360805","22.905852","113.3553283880655","22.90847447215385","020-31134993","广东省","广州市","番禺区"
"B0FFG9J0CL","东桔商业城","购物服务;商场;普通商场","060102","[]","植树村万兴一路3号(南浦地铁站D口步行300米)","113.292691","23.030705","113.28733510066573","23.03339404728069","[]","广东省","广州市","番禺区"
"B0H65COY7U","南浦里","购物服务;商场;商场","060100","[]","碧桂大道13号(南浦地铁站B口旁)","113.293447","23.034880","113.28808960409509","23.037566151175284","15817099765","广东省","广州市","番禺区"
"B0FFI9ZWLD","海印潮楼","购物服务;商场;普通商场","060102","[]","南村镇兴南大道445号(员岗地铁站F口步行60米)","113.365059","23.016309","113.3595684982824","23.018878267422618","020-28688168;18666022030","广东省","广州市","番禺区"
"B0FFHO09DP","信基厦滘广场","购物服务;商场;商场","060100","[]","健康路与厦滘南路交叉口西160米","113.318345","23.038688","113.31294097226987","23.04133013287585","[]","广东省","广州市","番禺区"
"B0FFFFH93K","肇源商业区","购物服务;商场;普通商场|购物服务;特色商业街;特色商业街","060102|061000","[]","洛溪新城碧桂园大道(南浦地铁站D口步行190米)","113.293678","23.032892","113.28832036300055","23.0355786691109","020-39981166","广东省","广州市","番禺区"
"B0HBMAKRKN","潮荟APMF区","购物服务;商场;普通商场","060102","[]","繁华路与北丽园一街交叉口东南60米","113.365424","22.941395","113.35993807410907","22.943995968104307","[]","广东省","广州市","番禺区"
"B0I2O7W6SQ","康宁健康广场","购物服务;商场;普通商场","060102","[]","金业路东三街与金业路东二街交叉口东北120米","113.368819","22.917278","113.36333006447636","22.91988461480778","[]","广东省","广州市","番禺区"
"B0FFKDWNS3","盈邦商业中心","购物服务;商场;普通商场","060102","[]","西乡三路与教育路交叉口东200米","113.264999","23.039799","113.25967498284416","23.042512713692528","[]","广东省","广州市","番禺区"
"B0GRR7L21C","大同世界广场","购物服务;商场;商场","060100","[]","绣品大街与桥南路交叉口西40米","113.368024","22.930455","113.36253522365533","22.933057117949563","[]","广东省","广州市","番禺区"
"B0FFKSF2ZU","PINK SHOP(万达广场店)","购物服务;商场;免税品店","060103","[]","汉溪大道386号万达广场广州番禺店F1","113.349446","23.007477","113.34398187220708","23.01007461142461","[]","广东省","广州市","番禺区"
"B0I3FRVTKF","喜盈嘉立思有单独厨房设计看公园楼下就是购物中心","购物服务;商场;购物中心","060101","[]","海棠一街与芙蓉路交叉口东北60米","113.362098","22.922416","113.35661826900457","22.925029679016273","[]","广东省","广州市","番禺区"
"B00141R3BO","南华商贸城","购物服务;商场;普通商场","060102","[]","南华路与南康大街交叉口西40米","113.365880","22.925035","113.36039453944228","22.92764224422233","[]","广东省","广州市","番禺区"
"B0FFL0SAPU","leonone","购物服务;商场;免税品店","060103","[]","大涌路与工业三路交叉口东北120米","113.329992","23.024576","113.32456503976083","23.02720209740878","[]","广东省","广州市","番禺区"
"B0I14UC3IY","汇南广场","购物服务;商场;商场","060100","[]","桔树万兴一街与桔树万兴一街一横巷交叉口西南100米","113.292730","23.030915","113.28737402418422","23.033603900499692","[]","广东省","广州市","番禺区"
"B0FFIPT5GV","基盛万科里","购物服务;商场;普通商场","060102","[]","番禺大道北辅路与兴泰路交叉口西南180米","113.387145","22.931466","113.38163734556935","22.934048940015252","[]","广东省","广州市","番禺区"
"B0FFIS80CP","和汇圣(万诚德宝店)","购物服务;商场;普通商场|体育休闲服务;娱乐场所;棋牌室","060102|080306","[]","桥南汇景大道339号","113.377692","22.921121","113.37219255998518","22.92371595609576","020-84878555","广东省","广州市","番禺区"
"B0FFKEC902","汇珑商业广场(汇珑新天地店)","购物服务;商场;商场","060100","[]","市桥镇清河东路203号","113.377967","22.937037","113.3724662068195","22.939624994114084","[]","广东省","广州市","番禺区"
"B0FFL6AY6X","松岗商贸城","购物服务;商场;普通商场","060102","[]","富华东路与梨园大道南交叉口东60米","113.375363","22.946120","113.36986426550484","22.948706799997385","[]","广东省","广州市","番禺区"
"B0G3MO41AU","乐购城","购物服务;商场;普通商场|购物服务;服装鞋帽皮具店;服装鞋帽皮具店","060102|061100","[]","文明路","113.390195","23.007535","113.38468055194699","23.010083588138947","020-39192888","广东省","广州市","番禺区"
"B0G2M6TDXB","黄编金福广场","购物服务;商场;普通商场","060102","[]","迎康街与迎富街交叉口西北60米","113.371995","22.951366","113.36649975087954","22.953954341865487","[]","广东省","广州市","番禺区"
"B0I2G7JSU9","美好广场","购物服务;商场;商场","060100","[]","黄编大道166号101","113.372103","22.949912","113.36660772016246","22.952500834733822","[]","广东省","广州市","番禺区"
"B0FFH11T45","番安商贸城6座","购物服务;商场;普通商场","060102","[]","沙乐大街与富华东路交叉口西北120米","113.379134","22.946719","113.37363143412882","22.949301774085345","[]","广东省","广州市","番禺区"
"B0FFFAILG2","城业广场","购物服务;商场;普通商场","060102","[]","兴业大道东1046号","113.385340","23.002348","113.37982865431444","23.00490177779263","[]","广东省","广州市","番禺区"
"B0FFK1YJZC","天鸿商业","购物服务;商场;普通商场|购物服务;特色商业街;特色商业街","060102|061000","[]","南华路与步行街交叉口西南100米","113.389265","23.005856","113.3837511118611","23.008405805799253","[]","广东省","广州市","番禺区"
"B00140HQMI","莲花山旅游区莲花城商场","购物服务;商场;普通商场","060102","[]","石楼镇莲花山粤海度假村会议中心","113.503906","22.991222","113.49862159995862","22.993970938374922","[]","广东省","广州市","番禺区"
"B00141JRJO","南村商贸城(南华路)","购物服务;商场;普通商场","060102","[]","文明路31-33号附近","113.389537","23.006699","113.38402292002372","23.009248293914318","020-34761252","广东省","广州市","番禺区"
"B00141IEY6","广州大学商业中心","购物服务;商场;购物中心","060101","[]","大学城中环西路230号","113.372703","23.041679","113.36720075139587","23.044227616085678","020-39366621","广东省","广州市","番禺区"
"B0FFFA064X","AEON MALL(番禺店)","购物服务;商场;购物中心|购物服务;超级市场;超市","060101|060400","[]","大龙街亚运大道1号(番禺广场地铁站C口步行280米)","113.387761","22.937319","113.3822525895959","22.939899087659832","020-23331888","广东省","广州市","番禺区"
"B00141R6MG","富华商贸城","购物服务;商场;普通商场|购物服务;综合市场;综合市场","060102|060700","[]","黄编村富华东路","113.372002","22.947967","113.36650697374377","22.95055678148273","[]","广东省","广州市","番禺区"
"B0FFH16I90","番安商贸城2座","购物服务;商场;普通商场","060102","[]","富华东路与沙圩一村心下街交叉口北40米","113.378251","22.946117","113.37274931271733","22.948700868506894","020-84613039","广东省","广州市","番禺区"
"B0FFHC2L4U","西亚兴安商业城","购物服务;商场;普通商场|购物服务;超级市场;超市","060102|060400","[]","暨南大学番禺校区T3宿舍楼和T4宿舍楼中间","113.413113","23.019064","113.40759978282446","23.021607141749616","020-37330025;020-83336550","广东省","广州市","番禺区"
"B0G3T9R2HX","免购置税直上粤A牌","购物服务;商场;免税品店","060103","[]","迎星东路广州长谭汽车销售有限公司","113.371751","22.967952","113.36625491637501","22.97053353159343","[]","广东省","广州市","番禺区"
"B0FFH11U0M","番安商贸城5座","购物服务;商场;普通商场","060102","[]","富华东路与沙乐大街交叉口西北100米","113.379162","22.946435","113.37365942741764","22.949017868726724","[]","广东省","广州市","番禺区"
"B0I3FLW9Q8","樟边汇城广场","购物服务;商场;普通商场","060102","[]","为民中路与杜宅坊大街交叉口西140米","113.382287","22.982892","113.37677923484871","22.985456503219858","[]","广东省","广州市","番禺区"
"B0G2K5TSWE","喜盈汇商务中心","购物服务;商场;购物中心","060101","[]","亚运大道544号","113.409117","22.935501","113.40360727912874","22.938078446436343","13660097655","广东省","广州市","番禺区"
"B0G0KNR8FR","新安商场(新安商务中心店)","购物服务;商场;普通商场","060102","[]","石基镇市莲路傍江东村18号","113.405115","22.943432","113.39960332694503","22.94600521721282","[]","广东省","广州市","番禺区"
"B0FFIA7I34","增隆购物商场","购物服务;商场;普通商场","060102","[]","砺江路与人民路交叉口东北20米","113.488340","22.975466","113.48300225956764","22.978174979546036","[]","广东省","广州市","番禺区"
"B0GKCASD2E","和大福百货(茶东路店)","购物服务;商场;普通商场|购物服务;便民商店/便利店;便民商店/便利店","060102|060200","[]","茶东路61号","113.401405","22.961891","113.3958914665322","22.964456171563736","[]","广东省","广州市","番禺区"
"B0G257WDRP","华亿汇购物广场","购物服务;商场;购物中心","060101","[]","金坑路与金山金庄路交叉口东80米","113.416773","22.990157","113.41126448386517","22.992714719540082","[]","广东省","广州市","番禺区"
"B0FFK97226","富怡十二行","购物服务;商场;普通商场","060102","[]","石基三中(富怡路)(公交站)新昌石材傍边","113.396662","22.952241","113.39114933094379","22.954810953913587","13392620383","广东省","广州市","番禺区"
